time,terrain,torque_0,torque_1,torque_2,torque_3,torque_4,torque_5,torque_6,torque_7,torque_8,torque_9,torque_10,torque_11,accel_x,accel_y,accel_z,height,contact_0,contact_1,contact_2,contact_3,roll,pitch,yaw
300.06000000070463,soft,0.8638280203352106,8.350973919652072,-0.5817450548777252,-1.3631013371440415,-0.856967738932296,-3.152624067694237,-2.2002900686079814,-3.630158320122292,-1.8887031575866118,2.842806853026258,15.150523882842295,3.97114594635619,0.24193977756883692,0.3194930685357495,-4.803621541097996,0.28375958807516866,10.665947376488221,24.01108362270871,39.509765231762294,0.0,-0.049294024302079846,-0.14643638811640686,-0.2237682931284888
300.08000000070473,soft,1.079598414365527,8.970648776151132,0.6665036120362231,-1.3152224196517737,-1.1168601436513819,-2.6638840817136415,-2.5483072661886825,-5.147844070475814,-0.1603997808584552,2.8579285108555297,15.561054423365674,6.327121217969566,-0.4293326811550609,0.46584073929746894,-2.560770845003957,0.2764787807596058,17.789149338832175,38.03509416668067,52.70203278804693,0.0,-0.06066525809888947,-0.15910109452846552,-0.21449742846860156
300.1000000007048,soft,1.8683857557908488,10.024070449291571,3.301994000426337,-1.417347871664238,-1.4700814328441143,-2.2845069709674872,-2.7045679325053618,-6.809836138419204,1.997178729465105,3.1340853988798263,16.63385781311625,7.854577152684195,-0.9111933886707068,-0.1297448054419524,-0.21688965473938418,0.2682717081322415,35.8235296613847,50.49550411510991,57.179687713366356,0.0,-0.07098595220805277,-0.1680891023723813,-0.20433472605560418
300.1200000007049,soft,2.6972682037836577,11.202614085746625,5.1834619800909945,-1.5510386775171052,-1.7993279245562048,-1.9217984709322113,-2.9715053669669715,-8.096133199572817,3.555123364680382,3.2849664228458026,17.48071450507137,9.016113466199005,-1.0060629907980423,-0.46341527842630054,0.9042406827107266,0.2599865851206371,43.56248684360332,57.06621200908235,59.73491092084694,0.0,-0.07936083271443362,-0.17486771201584447,-0.1932122997789404
300.140000000705,soft,3.4663372141233983,12.448300581864789,6.326516792394269,-1.606759426039608,-2.102307446330883,-1.5540334343452216,-3.427868100148347,-8.87336489369393,5.045332619901783,3.2708875310461765,18.06241554666907,10.052738367669438,-0.7663279748473791,-0.5820797851599663,1.4683823307672732,0.2520657887712052,45.20678903490676,61.75165945572834,62.09820954156195,0.0,-0.08613945451877132,-0.18061482271575463,-0.18100231687883295
300.1600000007051,soft,4.167272061424317,13.566654033097542,7.088344386329574,-1.6292633617571037,-2.3647516570020466,-1.1921299428501642,-3.919927346161085,-9.244878506884513,6.571351465564794,3.1933648309488323,18.41329917078151,10.994030410907047,-0.4484724809680017,-0.6020031725594591,1.8129618168579849,0.24473129043050157,44.69922696938559,65.56776102661254,64.23507781117301,0.0,-0.09158471828258366,-0.18599901835747948,-0.16785485336764558
300.1800000007052,soft,4.751025439483353,14.337701079398009,7.777364029370877,-1.6333445937868136,-2.584822711054782,-0.8437365601733622,-4.355199648839176,-9.354658482168706,8.015250523332542,3.1143745504881233,18.55559990619632,11.841706039060945,-0.28262228890512003,-0.5854533786485835,2.1476490379574633,0.23812353739506995,45.677845589889074,68.18758219780008,66.14120828074785,0.0,-0.0957943648017535,-0.19144022679842748,-0.15403600425474775
300.2000000007053,soft,5.161666815278284,14.664354542555971,8.440632168806,-1.6592480254654842,-2.761735173056211,-0.3937830966099696,-4.663356473635434,-9.215134392043787,9.27856576339262,3.079865962790686,18.540474572721227,12.516438685046678,-0.13943025187510888,-0.4959963182417859,2.54339730507456,0.2323870233692782,47.56824180821212,69.19853493299364,2.7713272512020666,66.78429901376343,-0.09860422857858,-0.19734258853552664,-0.13978238826424408
300.2200000007054,soft,5.4571898082853485,14.722531022435861,8.880173202367224,-1.6627718349481029,-2.893985687634401,0.09710037941359229,-4.893291073674964,-8.913155976394302,10.389891223708071,3.0653882808458834,18.325019927625696,13.123328810748166,-0.15541125719279414,-0.4582505450750941,2.6510154231417373,0.22765780171650518,48.34294082165385,69.29700645326895,0.8174904274376393,10.128162858763723,-0.10001510526487646,-0.20401424812345834,-0.12532382941263676
300.2400000007055,soft,5.637647722292211,14.593961885209808,9.143858974596224,-1.6607498684255444,-2.9911663743153003,0.4048404315170777,-5.066716409440902,-8.490636246287306,11.339585949790225,3.0595487625886832,17.97992754588068,13.712308037382147,-0.2212619391127299,-0.3868223488201211,2.6097931640458563,0.2239751047857845,48.18077269236194,68.6274012275842,0.0,0.0,-0.10011164401285728,-0.21174558064438834,-0.11075964881838425
300.2600000007056,soft,5.735009866399201,14.390051042602181,9.331718336197163,-1.6278477897503338,-3.0436466514347487,0.706348047848568,-5.143723330628223,-8.558500166203173,11.762590920774565,3.0700856055731114,17.694687885846463,14.057148174270088,-0.10026104365427005,-0.42366620987615894,2.7331668898301804,0.2213427122824958,47.729340749904104,5.150474326956786,0.0,1.172364599110572,-0.09890202608080685,-0.22040523664916062,-0.0962867614121859
300.2800000007057,soft,5.787658123297353,14.146470833679258,9.477467747576869,-1.5976014133186482,-3.0940136768971502,0.9780374139992403,-5.203537259124328,-8.628524873806183,11.955404637767273,3.0620860082087433,17.41087835758114,14.223104123775038,0.06986905726252875,-0.4292633593473845,2.5180498814540893,0.21977098008463558,47.03119332304004,8.866174586312276,0.0,2.0121670757245393,-0.09636049608137141,-0.22927919312291953,-0.08200902717265246
300.3000000007058,soft,5.828163574191086,13.836222696849108,9.551722680116702,-1.5621520225388044,-3.117743930329646,1.227192072015082,-5.25661017370091,-8.470638007271598,12.10372454354293,3.0530688771052414,17.04292558476619,14.330204672620813,0.13533679539001617,-0.451689999930336,2.279609541671125,0.21918832846101305,46.06658578016147,8.386705342254956,0.0,2.356000342935356,-0.0925506412793018,-0.2381553260633542,-0.06790957474250511
300.3200000007059,soft,5.822585383798694,13.45092986029168,9.562208978748838,-1.5337164436846114,-3.1152582739201256,1.452528362964149,-5.295815574593765,-8.230070545053405,12.237598196010392,3.035821559015878,16.600615557756953,14.398180289161296,0.19440910686099952,-0.3977534454383628,1.9402129330658078,0.21949795674383157,44.65907776569057,11.984148122829652,0.0,0.0,-0.08754290325331288,-0.24695596076320833,-0.05396193271119852
300.34000000070597,soft,5.753544424439338,12.939476057289394,9.72171849311889,-1.4860714560245665,-3.08393338398636,1.660881882550946,-5.304393134346784,-7.892912693730803,12.331473341519317,3.0198690457701924,16.162748866797372,14.416556444068027,0.21411349125407253,-0.36275538897237125,1.6747620997625352,0.2205691816367584,42.94464175596013,12.327445841142223,0.11368794832627832,0.0,-0.08151923570219041,-0.2555342782524626,-0.04024697575873236
300.36000000070607,soft,5.73179108763645,12.518429888731793,9.672631301557406,-1.4499946247624085,-3.045583814764001,1.8400894818055393,-5.31232619714558,-7.499013508038425,12.406520356066746,3.0091269319516907,15.628711174540822,14.51365115840718,0.23665919327419777,-0.4082413582236134,1.3365011590421891,0.22228218850822146,41.644185617126695,12.5557460986785,0.0,0.0,-0.07459856608584974,-0.2637540332839692,-0.026695105867990402
300.38000000070616,soft,5.668882091287522,12.097354602500626,9.585859936284864,-1.4218546662240494,-2.9746694744886772,1.9973589753599663,-5.319568880950482,-7.022758295731808,12.451609459423825,2.9754549049084127,15.100645386437861,14.562175233163488,0.20263646862370607,-0.36030761221253915,1.0680978239734726,0.22451565340725907,40.25914814477814,11.702800781309534,0.28751270700259246,0.0,-0.06689575985782764,-0.27161283678665055,-0.013308036497262156
300.40000000070626,soft,5.576202366071944,11.668848545985497,9.462110820238477,-1.3930567905941789,-2.8918815017114596,2.1312945443181066,-5.300722270135804,-6.511006501659907,12.440100210888932,2.937014188164264,14.58511343929471,14.555491886538682,0.20287058332746183,-0.31644544664312096,0.7809654402293673,0.2271616490291349,38.80905517473799,10.180190310497435,0.7840332617321102,0.0,-0.058593631017576885,-0.27904260494541233,-0.00015221317674261664
300.42000000070635,soft,5.390153195973561,11.193751792325749,9.282563924629171,-1.389372624703765,-2.8011771531997915,2.2410905649079274,-5.205789806658875,-6.237710473434741,11.436066929943124,2.8752830162136203,14.052818780517622,14.532720941333853,0.4537542577868557,-0.16216960107418757,0.30094909133528475,0.23009304622124582,37.08627881624111,4.236985796805032,2.9561456898578022,1.829588600776451,-0.04998456831517139,-0.2860867885750262,0.012573311296188605
300.44000000070645,soft,5.18432557277662,10.728837919659863,9.031829890546714,-1.340287486821813,-2.6929533567485233,2.3419683531487685,-5.018167157684077,-6.345369431196357,9.705566414207903,2.8333084487246007,13.517161277312763,14.520202983481658,0.6875682292828225,0.037420005178140876,-0.19197870785187043,0.23312019702384643,34.75691280370566,0.0,1.1492004171622638,6.644076022784508,-0.041638511451512865,-0.29277220059205666,0.02433995621691282
300.46000000070654,soft,4.975672123387908,10.302526971861646,8.777558545828471,-1.2883316115989647,-2.5565560081513024,2.4248290415755136,-4.911286538627023,-6.395018807146949,8.999366362098009,2.7719003083395153,13.078341735510932,14.4443032770901,0.6934205394073502,0.08890066760768382,-0.500925282756567,0.23606148203522984,32.80555374472929,2.964422976091375,2.707217335807633,7.240939292885739,-0.03385389882506533,-0.2987120669574413,0.03497187072533633
300.48000000070664,soft,4.470142435936575,9.63318381610622,8.167108400874335,-1.17184738715479,-2.40353477346566,2.499646369869306,-4.866518924609942,-6.039764588194375,9.172851476181592,2.7245487561796664,12.79801072023084,14.293769738406745,0.6566189749843209,0.17015118481880567,-0.8816156911731036,0.23878484238550482,28.64235003028684,8.7937002945402,4.615475161200196,4.760270306791931,-0.02669259212720148,-0.3032209624974246,0.04475038449782571
300.50000000070673,soft,3.927959943397963,8.7109763245762,7.373198108705651,-1.0405977156026172,-2.2453083706871046,2.5528896255019955,-4.770291766427589,-5.2493170712577015,9.674699125884896,2.7900110952746857,12.632446683040996,14.152127186941195,0.6067673502089653,0.23153046411794614,-1.1782586433214621,0.24114545778069657,24.50609105847367,10.681810898810912,3.9806926237575073,1.02128480247282,-0.01967019959063596,-0.30554209746640426,0.054336946991844284
300.52000000070683,soft,3.6989482101255735,7.989572457368689,6.878122031406532,-1.0030871364634404,-2.0940580964939413,2.5639335222396404,-4.684933328702017,-4.29286743227658,10.237631628548163,2.8609600451905206,12.474556180144054,14.045671282611687,0.5927111099582333,0.18412797701264344,-1.2230929483617707,0.2430378560759034,22.973794335688705,9.647434225639193,2.552154040528848,0.7170661603762132,-0.012470644597813437,-0.30532376358755814,0.06427929984053639
300.5400000007069,soft,3.817674167208269,7.652143461682256,6.7917763510152,-1.034798919114481,-1.94771333311878,2.5399401360837626,-4.668806362095622,-3.4164747465008807,10.784102977296303,2.8450732728246986,12.232453259633491,13.957591240150848,0.5706386780417967,0.05194434122838154,-1.0583392866442223,0.2444517340088916,24.010334559565734,7.521907963710284,1.0756759124408248,2.225916959063238,-0.005276347943304417,-0.30279159977623527,0.07470366750701364
300.560000000707,soft,4.141119806875095,7.523093145928715,6.958424650445015,-1.0923338344973947,-1.796786470044892,2.493082952766339,-4.71121941093523,-2.6926606498071113,11.299152789402838,2.737795752059466,11.886909468188168,13.85748720911811,0.48953891620691237,-0.10187204392286703,-0.8192595924757954,0.2454533681975148,26.682106030387853,5.116016503834022,0.0,3.4156088317942945,0.0016905152374834863,-0.29848698726672296,0.08544829133703725
300.5800000007071,soft,4.440377963254283,7.382247413917922,7.136172011113412,-1.1488612273911016,-1.6316804237747853,2.4336565388576776,-4.7730245314986135,-2.0948852203102337,11.759829017302831,2.573014861410261,11.476771994322668,13.719899958202065,0.3566757770038999,-0.23675339269192736,-0.6344575802875467,0.24613436340400185,29.318429791505576,2.193509456722436,0.0,3.6083208591707,0.008362450151782615,-0.29298908418928754,0.09625130035185137
300.6000000007072,soft,4.664941232966764,7.218942702390073,7.165582976518358,-1.1597409853939848,-1.456983182419176,2.3706724967250086,-4.801499826193229,-1.5465010903860223,12.134480164716669,2.402139600037044,11.043785125850823,13.550444475660859,0.2684372239515137,-0.3161400340834988,-0.5581266845031291,0.24656254207171882,30.52467744427212,0.5257869426173075,0.0,2.731174141616346,0.014813362757173612,-0.28667906540912785,0.1068859684283747
300.6200000007073,soft,4.841036755694423,7.031992793433558,7.105803013288073,-1.175032742620051,-1.2732962443840732,2.2956440613911733,-4.808645714411736,-1.0100457824874498,12.422873803845516,2.2253598986055128,10.611101050969754,13.338062922184985,0.17210301594290187,-0.32665756975162447,-0.4581241699805609,0.24677084231813615,31.848296855620177,0.0,0.0,0.5497016575027892,0.02121627456482312,-0.27971908337777895,0.11728072647604613
300.6400000007074,soft,4.979058111551491,6.86736916218652,6.866834542288801,-1.190653941387388,-1.0895330650225215,2.2105907695965374,-4.8052564541486795,-0.5054815123757068,12.647297067978053,2.0513212938048344,10.188162503200747,13.054217841948038,0.15440272826326545,-0.3917975966579714,-0.4244763638282485,0.2467966633325867,32.42542635671341,0.0,0.0,0.0,0.02759445203475651,-0.2722567117819754,0.12727315928691518
300.6600000007075,soft,5.048071342975188,6.592008353615542,6.677054130404316,-1.1830789250694935,-0.8962323695236629,2.1242585522369595,-4.79136237004523,0.050330681853530734,12.784242291442816,1.8964140773700437,9.776324826491681,12.754906790990711,0.1954490940840862,-0.48937782814841535,-0.4335971904011233,0.24665330281298273,32.342332583176606,0.0,0.0,0.0,0.034110283330581595,-0.2642999822202458,0.13674181043124467
300.6800000007076,soft,5.076037674746949,6.24651026761698,6.478553318637911,-1.1805149966305546,-0.7042675835386984,2.0281656492205213,-4.770636896913261,0.6374268454726115,12.85715522026733,1.7694524760494377,9.36154201933888,12.459092964859412,0.24570528309390668,-0.5693493782314253,-0.45015599200933687,0.24633621389420696,32.29191436359567,0.0,0.0,0.0,0.04098194684481272,-0.2557664242125465,0.14556142871925387
300.7000000007077,soft,5.092055859165587,5.846304440546566,6.253615696449933,-1.1722216045411709,-0.5113144784413942,1.9264956414991063,-4.7263209475330665,1.2493407914578283,12.87837374590684,1.6928870990177178,8.937604363475565,12.179407475327562,0.29933717454065734,-0.635360249179238,-0.47228250673084887,0.24583894358926506,32.182748204693794,0.0,0.0,48.0651131453503,0.04842875041608043,-0.24660375879342913,0.15358690093586252
300.7200000007078,soft,5.080078458035713,5.385886358402685,6.016622903883453,-1.1687186942563839,-0.31853409131268323,1.819409998022258,-4.679930061932845,1.88763551214862,12.855803878862147,1.6481372222107522,8.50362824596143,11.917893984449051,0.3561701420898992,-0.6972917063946659,-0.49423609626533777,0.24515285848442195,32.124054091358026,0.0,48.3118159282105,2.400000982603785,0.05661985115847331,-0.23675039263513553,0.16067746534224941
300.7400000007079,soft,4.997239087710357,4.861516189053111,5.688738696858614,-1.149939236292329,0.16530617791189628,2.1888281143218062,-4.677924035858593,2.49993714595173,12.816500099683754,1.5880811309547576,7.994239540568158,11.68000559801512,0.22656261821601398,-0.6409657148776744,-0.25925703761036517,0.24428486363066607,31.223625533084054,4.759327494921616,0.0,48.606938812732636,0.06555348526547408,-0.22628131553009945,0.16671344301114097
300.760000000708,soft,4.871921311749658,4.375187769076328,4.998440530138695,-1.1599971233413595,0.6498101231527171,3.335369523338139,-4.676804976183991,3.061822565533754,12.697577309455529,1.51064461040158,7.344545100378237,11.38547565210281,-0.3537918745128278,-0.33011134094346234,0.21053985084592922,0.24335241125093568,26.888887198835295,16.274898557369347,0.0,48.3544375832883,0.07493971320388178,-0.21594060424392944,0.17172473723415577
300.78000000070807,soft,4.613651929875912,3.7524341168803494,4.242383059395681,-1.1705486028926715,1.2453493842869379,4.058680346628554,-4.660165386859265,3.630474683349032,12.521308467988174,1.423816544552571,6.588550496511607,11.038391058913486,-0.5630843298255143,-0.15198765488473778,0.29602664941204904,0.2425026593542261,23.305160886854818,21.688385366956954,0.0,47.807672567092524,0.08442296448845746,-0.20661675818732467,0.17590334727614218
300.80000000070817,soft,4.311596538785242,3.029659212046835,3.5385871097152766,-1.1660090633811024,1.9576294926497289,4.503365941981514,-4.613694271221317,4.262431973006354,12.300233005110577,1.3615102419671712,5.784255431188669,10.682534790014573,-0.6064001840213236,-0.03900977048347237,0.24562328362663552,0.24176809997074786,20.271938030077646,24.51524839087356,0.0,46.96248747363601,0.09383748784616958,-0.19852811442090243,0.1793966715128712
300.82000000070826,soft,4.045514381171557,2.2726495994262943,2.8676678204157815,-1.1603733134375827,2.7461494036774154,4.837567912216873,-4.555365330328114,4.95397070958776,12.06809800960761,1.3155234961330147,4.926825312541469,10.350566015206944,-0.587490437602026,0.0474694278609267,0.16146724146534688,0.24112877674764546,17.67066580946001,26.338191312585693,46.02198859681882,3.5748020576893667,0.1031122088304688,-0.19161385324318192,0.18230521824019844
300.84000000070836,soft,3.819865306290889,1.4802690889757268,2.245773812639124,-1.1598393140054999,3.5931749177575316,5.120517838635366,-4.492059014356904,5.698742297652384,11.836307394138004,1.2835143008053809,4.014805777443798,10.052509688671446,-0.5460524314673544,0.10888548616598569,0.09235660393073608,0.24055228081185656,15.656263133557639,27.64709143802957,45.03955223521146,3.6800777339204296,0.1121813652743959,-0.1857440248774037,0.18470092874227337
300.86000000070845,soft,3.611518057594722,0.6522202749706499,1.6876881179763212,-1.161117895611546,4.498014932903502,5.377870884009453,-4.421676590108201,6.50040501123841,11.611853664044753,1.276875108205572,3.065740466217759,9.777707997942345,-0.49530486174753835,0.11719240908764558,0.08027919917852462,0.24001579196037726,14.331433137285867,0.0,28.60692930444207,4.128920117390906,0.12103127184129797,-0.18075864288606136,0.18663199443571907
300.88000000070855,soft,3.3704995961592155,-0.2177631442276024,1.2100792891679006,-1.1643860242463984,5.442213743902926,5.6068813866788085,-4.3387555763327015,7.333345560631735,11.393115871155317,1.3008013210923723,2.0583103889007432,9.54314667542067,-0.44471233261961046,0.13444422225860359,0.06444535754530008,0.23951134386491893,13.810155020716621,0.0,29.15850156873737,3.7641389038742163,0.12972213571232277,-0.1765146252607112,0.1881191821341382
300.90000000070864,soft,3.0642668580388035,-1.0983404618512511,0.8357536156219723,-1.1673989505876625,6.416813347013569,5.801142501312846,-4.229154432196537,8.182576349608727,11.158411475949794,1.367723834948181,0.9876078435041152,9.354820123463005,-0.3942880531742484,0.14794530522773514,0.08412842516069571,0.239034880677032,13.83577671459806,0.0,29.563634226086553,3.35609212425593,0.13832250089399484,-0.17294881812745833,0.18916574157833807
300.92000000070874,soft,2.714987194552801,-2.0016286653121007,0.552877350192735,-1.1807853089365958,7.402992732281136,5.928235446307827,-4.104064685418017,9.009347987741386,10.941847263086503,1.4719947129685713,-0.1707997798911849,9.219358279024137,-0.36082124204312305,0.1571233475118837,0.11241545697778144,0.23859137400276517,13.738536762197059,0.0,29.90132037811406,2.9674320976824737,0.14687654476001086,-0.17006470984200647,0.18975068024838979
300.94000000070884,soft,2.307234425902642,-2.8521337692702824,0.3840304097536737,-1.2382381879545907,8.423089297110312,6.000595944145218,-4.001528751771511,9.86192316113658,10.682897892803211,1.5657217093584028,-1.365126563433768,9.108597198501803,-0.3164341245478239,0.10583533809557752,0.160451355700389,0.23819419112521306,15.189296924507538,0.0,29.309604699567185,2.3937188659365396,0.1553277612124899,-0.1678370688408596,0.18986454720907042
300.96000000070893,soft,1.9026872090428117,-3.629503543277982,0.29899396905930553,-1.2985723797872266,9.447219046786085,6.059813580305154,-3.8413500017299333,10.692664876982338,10.387875138815435,1.7518200483777144,-2.5981931265990963,9.040354680324494,-0.25781813691863453,0.052609418244562334,0.22618708752598754,0.23786428809950633,16.82592531939372,0.0,28.64932316768124,1.7041900546500548,0.1638120522653096,-0.1662237078296892,0.1894386776833725
300.980000000709,soft,1.473271359658324,-4.346477010677916,0.2677008968124427,-1.4278991999407118,10.458066813156014,6.126596598590379,-3.6587739336837104,11.468935821238361,10.080494913684285,2.0179994615526824,-3.833269401190864,8.996250049682153,-0.22017800340008944,-0.005776827590083027,0.29298385837807267,0.23762823695589194,18.43475789958731,0.0,28.130442069849234,1.0179631043476627,0.17250283485453802,-0.16519580407290602,0.18827649859625326
301.0000000007091,soft,1.0100070310482518,-4.9897593016998565,0.2641404842681088,-1.6459094851959704,11.323097787817737,6.359636585527098,-3.4699634811675,12.176795709345145,9.767241702333573,2.3606415055225525,-5.031295621861556,8.960407363881334,-0.29705571215279364,-0.0276375126978692,0.43661130519383284,0.23751746098209453,19.77162970080276,0.0,29.276432742774993,0.4605395647407929,0.18144845553312822,-0.16475114718564438,0.18612124748492861
301.0200000007092,soft,1.3198709647481588,-1.7393763652741412,-3.797384298640507,-1.432091210067942,11.40531713921083,0.6180341266440674,-2.6238537918980533,14.7056101267816,1.4116247496468084,1.7535937975889222,-2.3869596286056733,-0.55847317228055,-0.8314984783291354,-0.7307453509903301,-1.8204146018436842,0.2359007879469965,11.811503285425886,7.230547053829975,22.16789075493563,12.551815447043223,0.19366304733400408,-0.1705438888258211,0.18307668096100932
301.0400000007093,soft,1.0341320531609925,-1.169550271724413,-3.8422526277463334,-1.9987590627543823,12.415913339502287,2.2401738200515915,-2.8115299922761823,15.482967002043056,2.654137954983179,1.949711216729261,-4.542078204664163,1.753015403855679,-0.7811590192670217,0.042952542208726366,-0.6837862670298117,0.2334243814605205,8.571073558425004,27.90415278467232,11.850517519636227,28.110451787100057,0.20681801371595585,-0.1774370772727974,0.17920616471522557
301.0600000007094,soft,1.3956381526351482,-1.2085977810698578,-3.37568442354166,-2.924755394633194,13.600402877982145,3.4795064019537243,-3.0801370160997643,16.102042257135302,3.8418242953469566,2.2577691242253874,-5.921704737743001,3.4528879920824433,-0.5783837638434435,0.3167960406597231,0.17048853023105442,0.2306943564044609,7.589308576600892,32.68869654305265,11.466573673567119,30.983630875266766,0.2183003924342194,-0.18356588515374844,0.1735694848272016
301.0800000007095,soft,1.454060436753358,-1.5865597964579523,-2.935331958073183,-3.7065660345288127,14.699968006386051,4.412602234122993,-3.1333891681193657,16.56703422379724,4.858408231534678,2.771011672131954,-6.958322312439177,4.9570763609135575,-0.30274525485196396,0.4228568576669908,0.7644524297039973,0.22803976809583015,6.261303116987975,35.83167586367721,10.882080862191101,33.159954487294804,0.22835578781806692,-0.18895934745584514,0.16606915745527354
301.1000000007096,soft,1.4875951130987355,-1.9396483327709602,-2.5088378853605953,-4.392582012228226,15.560816679435316,5.153241023713791,-3.1278442514499507,16.84110510780704,5.7705996472849215,3.2657084617863,-7.812180332689575,6.378527668153669,-0.015438321768196752,0.45178967430872125,1.1197145337628582,0.22569188709041269,4.203376322641909,39.124800301271904,7.09436386832427,37.750296573250424,0.2371094967998784,-0.19388629466860835,0.15698868642255417
301.1200000007097,soft,1.4828043290072797,-2.2454692108063554,-2.084717005094337,-5.02436482225186,15.97565914854145,5.885679979403207,-3.1215728300224193,17.015696015062986,6.424735264224141,3.624527852270271,-8.613702676153135,7.696253113963337,0.13217254844891932,0.6194155006212796,1.6017243361860853,0.22380019525741204,2.9053990763906903,42.53900226485833,43.754245821604975,7.233682259116382,0.2442624864810714,-0.19889251293685106,0.1466737275650181
301.1400000007098,soft,1.4810925274466238,-2.5016229191009964,-1.6718308895695735,-5.604649215305367,16.247685879114258,6.540891150867823,-3.145647633036346,17.162142835003397,6.914543823142296,3.9697193499964407,-9.660312177851262,8.257219074015996,0.30814488633416826,0.8060479803017565,1.8713950653175742,0.22254853162033786,46.83201064790284,43.2428025975559,11.00184620032722,3.4334550751428368,0.2491895453647407,-0.20381227646730024,0.13540199494758243
301.1600000007099,soft,1.4833733861079261,-2.7166177579583124,-1.2794538019519517,-6.106851344529415,16.398478238875935,7.0940077228932,-3.139055733086219,17.17375206579069,7.385226061374508,4.3170982981946935,-10.50900023237103,8.592442766627055,0.37242851190897464,0.7183090927684276,1.8766966549764668,0.22202482854069314,48.4581051444904,42.936657587147955,0.0,16.622510840225218,0.25185869924198956,-0.208375987174995,0.12332745375669311
301.18000000071,soft,1.4832476140008028,-2.895920432553374,-0.9057630408236523,-6.534652426249472,16.41116798928038,7.5795716338944965,-3.1204572055622797,17.051229584706547,7.836993500514624,4.627031684559141,-11.122028078444531,8.82359412366447,0.46478589903891365,0.7171384429762027,1.8825883202022946,0.22223965120119,49.59612736505805,42.839005022468974,0.0,20.703952817884257,0.2524410606587193,-0.21255703694419464,0.11064092590299827
301.2000000007101,soft,1.4826849671342135,-3.039799658993159,-0.5214351528424594,-6.883299351127258,16.31085667525192,7.979686599210433,-3.0846876043710116,16.813584593047594,8.25921878475453,4.891385009788921,-11.506442740492533,9.02914437113785,0.5107829373990693,0.6902390562771922,1.7901553880171412,0.2231926962465475,50.197669378596814,42.76045153017956,1.6677013257250377,22.716664656521743,0.25107451364669814,-0.2163187699118475,0.09750210877588487
301.2200000007102,soft,1.4811938243560168,-3.14677417101953,0.08043740351667997,-7.14639341197503,16.107032923881192,8.304787565071413,-3.0256066023518833,16.482298509964316,8.650048190671377,5.106813711373597,-11.734730080013733,9.240872612278856,0.6209985265397506,0.640805456057309,1.5965892236962858,0.2248475777491339,50.27111245348143,42.65512505872313,4.425481057683249,22.115086570402184,0.247940279895636,-0.21965325970712377,0.0840873350766067
301.24000000071027,soft,1.459432304197555,-3.217325607845102,0.4092216450263999,-7.343440822614594,15.82833108164104,8.562106195664516,-2.951464990332959,16.08976719786498,8.990722564323695,5.257225253140126,-11.824399772244258,9.513043929199991,0.6024458247931367,0.6195684857952574,1.4668539763722699,0.2271381767295499,49.99676091025886,42.45805809186237,4.8332947754275235,22.007981515515894,0.243282518279394,-0.222573525835654,0.07059351586707008
301.26000000071036,soft,1.4447055939790612,-3.260304783727669,0.7110732182624482,-7.497045869011433,15.502997888806043,8.776664338273871,-2.8595806484381665,15.658120542233764,9.28902728030739,5.376619634716777,-11.784313712006327,9.703702124974216,0.5557104830697299,0.5688800361653394,1.2296609292286664,0.2299898996190336,49.49115411570245,42.20992940298798,5.4483593510048856,21.179341896028557,0.23725771280000194,-0.2250192458681343,0.057092451617829186
301.28000000071046,soft,1.4276508817031897,-3.277925403220019,0.9895021371093793,-7.61693631204402,15.136954151018244,8.950587460392029,-2.760788160538496,15.194360477669589,9.5421451966915,5.4565433646948405,-11.607651951259657,9.897510472571376,0.5508384218723141,0.5498247876813361,1.0260113534781743,0.23331784806388606,48.81441507144142,41.91381594163766,5.646302510171044,20.4385752698754,0.2300159771395096,-0.2269755361926998,0.04364163958500611
301.30000000071055,soft,1.4101161256804449,-3.2705094867153397,1.2436039728162784,-7.702835088490648,14.736600874528825,9.083486421657186,-2.6538458893301864,14.70228124419868,9.756907192871457,5.508385465480317,-11.325669766166747,10.10784668409389,0.5272435752944128,0.5303418275766509,0.8071974032081416,0.23704105212904786,47.99132003923056,41.62654820728468,5.501277220192403,19.541021607535793,0.2216826365499318,-0.22842197325564387,0.03029690675095846
301.32000000071065,soft,1.3864037597996912,-3.2382702587553265,1.4758131491893538,-7.7446954545514455,14.240537288236943,9.303765615414983,-2.539618589200082,14.203250487716078,9.932789666441531,5.539713400029933,-10.945551291346721,10.32505973925505,0.49101429155991977,0.5066892062522943,0.5398660989488906,0.24106992827980367,46.6597901740748,41.342152360896954,5.049336722653131,18.4844028217428,0.21238549295692596,-0.22934057938664534,0.01710282611077932
301.34000000071075,soft,1.3628459514217512,-3.1936809605925394,1.6810673997511225,-7.78995512995403,13.760267639788157,9.471356403699577,-2.432464148533553,13.670670044042614,10.117799722406783,5.5609921665110775,-10.5042923449657,10.549163582127903,0.4438584626670538,0.6488556408248568,0.27605467459561395,0.24530152540157737,45.808939228776,40.63515765320386,19.493788105623878,4.420493658082491,0.20222487967634245,-0.22969714285117837,0.004070188985994732
301.36000000071084,soft,1.3560529894983837,-3.1283250574775145,1.858010321444553,-7.825152588450028,13.288743113487413,9.50518538391151,-2.3140444822835065,13.01677933731456,10.414188359295697,5.636843918108388,-9.894239420845246,10.690442919671929,0.4253607674298287,0.437828357661747,-0.12556110720494523,0.249626584372707,44.714702243775385,40.86582728347741,20.077299328078094,41.141145844881905,0.1911932242519133,-0.22969807373388762,-0.008894597321110075
301.38000000071094,soft,1.364131584545103,-3.0563070867647806,2.015589346956796,-7.348562957225539,12.474108300712736,9.18480601429552,-2.2051971477220977,12.28667517494885,10.753088413104656,5.529164916425295,-9.458582667037778,8.659225536974347,0.9648708722273288,-0.08240916881210784,-1.1149543242106192,0.2538460494994835,40.45172420895983,42.50903630238552,25.475540952367155,23.456146869446467,0.1799583567602232,-0.22980825093617893,-0.021219396076633656
301.40000000071103,soft,1.404251757326688,-3.01802915438118,2.0779676305222576,-6.004648480539948,11.150702090943179,8.343532565972838,-1.810683067179164,11.280776815838493,11.347946985160979,4.343183553682414,-6.436408728922061,8.246898792300309,0.9022670047538401,-1.045669516995892,-3.075960521720997,0.25752981820513565,32.01477444348838,49.625980653873455,22.764041319634654,0.0,0.17020486624061668,-0.2304582143929746,-0.03188850578906212
301.4200000007111,soft,1.2319003445214847,-2.8088630426712182,2.298744787162078,-5.027974629397033,10.061848635349577,7.698469830534484,-1.5214518644458577,10.415805071089142,11.827897137873142,4.082600448020253,-7.035758994018888,7.292653150600749,0.7265582382591854,-1.1533490928243386,-2.493251132454119,0.26019806020562575,28.17334851542719,51.51490374450636,16.177894914182286,16.106764280222045,0.16466397196380958,-0.23258378720320264,-0.04054914162126293
301.4400000007112,soft,1.1386768842460955,-2.6525793915297635,2.40941541578096,-4.96053559359841,9.709571116600017,7.986539307908096,-1.458965351476097,10.202694692561696,11.898141650313264,3.8654592454809604,-7.169501368710687,8.042429921648566,0.3197635707021036,-0.7934610467984413,-1.9415063062929274,0.26189649764135026,31.827016443125984,50.06683340129488,15.045875864681026,23.085493251865927,0.16118624116920205,-0.23341790975491908,-0.04778187948593571
301.4600000007113,soft,1.1611330350378513,-2.520187354281725,2.459337059314562,-5.27284854793385,9.460435622178615,8.661088715852532,-1.4491105034659508,10.071972124943631,11.813474874581713,3.7540456055926223,-6.711008731875687,9.62828447267891,-0.08613266892050232,-0.3778399355371957,-1.1234934588263399,0.26286111222058545,38.33615795894078,49.00789835809625,10.781276653038075,34.0555787579255,0.15859227176409812,-0.2324830500376577,-0.054406889127230566
301.4800000007114,soft,1.200048403473162,-2.3872627492361893,2.489040533662992,-5.635147766349596,9.376123811653901,8.97686464087751,-1.4002942554881912,9.884442973197206,11.659198294392828,3.7612276479690876,-6.0418412942398145,11.019567180823667,-0.2427281935871494,-0.10157427502297127,-0.7406919017799669,0.2633839199673718,40.78565162545383,47.84094661799568,6.746466174176539,42.45024715955763,0.1560794219307586,-0.23018586950971637,-0.060988240040255
301.5000000007115,soft,1.2453935326369918,-2.2411824695184084,2.503120123438446,-5.9440516861407415,9.34234490017049,9.077346606001415,-1.2754987130640858,9.631752792785637,11.480166426808907,3.8587297703874195,-5.391490177596842,12.09123903325629,-0.3001234485558567,0.10436199596357883,-0.5548856474247202,0.26361439957896154,41.77348478170038,46.689203301603314,3.7455580930187153,48.497925441617596,0.15343715153827084,-0.22691163733513714,-0.067782302378643
301.5200000007116,soft,1.2494320516032338,-2.0847404169001944,2.507362690071064,-6.188397499989003,9.311073696646135,9.06475228984072,-1.106238573635459,9.352644373325216,11.278307753750042,3.992055484386839,-4.792132954490674,12.941332488425822,-0.31941846461628637,0.22466866170903937,-0.4695880922453041,0.2636241048651422,41.746398719837295,45.695292591609515,1.4609600638499827,52.973087473661074,0.1507531259381389,-0.2229001379109076,-0.07476898281444948
301.5400000007117,soft,1.2507075539310062,-1.920018971674689,2.495449401359574,-6.464466706580066,9.26461236702334,8.99890491566266,-0.9681949255503298,9.034966668661555,11.078176044590666,4.079210101837399,-4.231957147009375,13.594994916466103,-0.31972778210720587,0.3262700878960652,-0.4147430374449973,0.2634463892524533,41.549926624309045,44.978928206498246,0.0,56.09403374056243,0.14769961361818795,-0.21825943250997354,-0.08196788059904872
301.5600000007118,soft,1.248861525522073,-1.7434576174703995,2.4703377422670245,-6.738617560056908,9.200817131826607,8.928242583159136,-0.8332751299034633,8.735034418698666,10.836577150342537,4.151394246488314,-3.786089267712743,14.037113313118057,-0.2859240405267577,0.43964215129221784,-0.3535559020225922,0.26310541118056574,41.518742148519664,44.045842440650915,0.0,57.90262909497232,0.14412767319972772,-0.21296811524665046,-0.08937083166112912
301.5800000007119,soft,1.2467304789250755,-1.5652219540207462,2.4286657147747004,-7.006523677384395,9.095297366118007,8.850422497607951,-0.7177951303544616,8.427080385806098,10.579684824577505,4.202977426118723,-3.3470121028898747,14.332824803218887,-0.2456560380858815,0.5252286917627262,-0.32387098247120016,0.26262306342358727,41.729386835884895,43.20619696541201,0.0,58.984912148089684,0.13987737188949967,-0.20696771097106345,-0.09692017700124615
301.600000000712,soft,1.2519350446977837,-1.3865766427892523,2.367726444096677,-7.259434194761656,8.961330057196314,8.679291214099413,-0.6416302541247669,8.082957192069724,10.321130070939017,4.221825839548655,-2.914661196432201,14.530480134780621,-0.21906176355206433,0.6072513253942274,-0.2502947174026334,0.26201739889481124,42.8325186287794,42.600383199083865,0.0,59.67857154117642,0.13475515492980167,-0.20032776616402365,-0.10449606303004248
301.6200000007121,soft,1.2503490285273409,-1.1992466449693886,2.2986736835019395,-7.464404292660679,8.782836203783186,8.445951094535548,-0.5805064234312434,7.718992258842939,10.050854849964809,4.237479836266823,-2.4666215411568606,14.649416281324974,-0.17127895881303704,0.6693052055425885,-0.2716278667079857,0.26130980873489973,42.79848098840136,42.060457721006706,0.0,60.05500259908307,0.128681780269369,-0.19316884184951144,-0.11192886218723318
301.6400000007122,soft,1.2468157787002465,-1.0045409704133905,2.2198925534638194,-7.610679384434311,8.509792856539054,8.27285619218805,-0.531318360920132,7.383188553178353,9.742829355067453,4.254345740437336,-1.9691359033331777,14.696024264146153,-0.11564949308503275,0.6843747564108503,-0.24514096234183957,0.2604976113824824,42.87070056079933,42.382597568536276,0.0,60.10592075051385,0.12166683432341154,-0.18545478602985188,-0.11904613000690757
301.6600000007123,soft,1.2439955224085402,-0.8151053667571269,2.129404716193875,-7.7023645001025125,8.173104632875981,8.091653856857016,-0.4996299144625458,7.065983303030766,9.381898531245307,4.27186894296253,-1.4455860861691407,14.687987681335322,-0.041880951810062614,0.7317376826235003,-0.26653071090183905,0.2595871205825416,42.97234626010065,42.155466995003536,0.0,60.0475338156809,0.11374985281793486,-0.1771332649655374,-0.12565415208613237
301.68000000071237,soft,1.240736093771502,-0.6251456876870423,2.0318981030341483,-7.75753146348649,7.769202014746215,7.888058640792356,-0.49208006224272915,6.683423351207441,9.06807821108969,4.291422182032076,-0.9083101740561776,14.653166318090223,0.009566622024560963,0.8019803926877839,-0.3041623054906172,0.2585699494575836,43.06922149441893,41.646833269914715,0.0,60.0010212255357,0.10490425775173125,-0.16826652257707522,-0.13162045556975038
301.70000000071246,soft,1.2372592149306556,-0.43041756454220903,1.9294304017591255,-7.772020577601772,7.311140971502872,7.680273827358743,-0.5082550904410013,6.265474376411,8.79316454051408,4.316195171369032,-0.32904069149820003,14.5699764646509,0.07440573899931825,0.8488118257638498,-0.3107134122884349,0.25743279379535194,43.22339126380141,2.139762533856031,39.5970604150468,0.0,0.09507832027031031,-0.15886605909703735,-0.13683079868727785
301.72000000071256,soft,1.236989844599272,-0.08731620319976108,2.1270691130324195,-7.736626185461986,6.799320340336429,7.431734463621637,-0.5453900789408062,5.792810090737939,8.555377753780313,4.34959493312327,0.2737975920160092,14.440077778954013,0.03586148095486492,0.7950622847635611,-0.16630455489404014,0.25617826130147975,2.886833744509794,42.90023069171889,3.0106162885142336,39.21187430137054,0.08426800725022177,-0.1489160760987325,-0.141166798819289
301.74000000071266,soft,1.2530732648075327,0.31501221118233214,3.240614061783976,-7.584712175599661,6.259796783913927,6.867905965081758,-0.5069254353841423,5.136580930775855,8.296308457026077,4.441557119154137,0.8035382239454174,14.271705068525133,-0.4600452751919951,0.4510034098175666,0.3678483175425458,0.2548920220206646,14.345742918982433,39.663915083860836,3.42380077617688,39.628040868951594,0.07274927057907361,-0.13901111428399682,-0.1446812761974018
301.76000000071275,soft,1.254825260782322,0.8186823028751615,4.1138365514773785,-7.321114847969491,5.64573494055465,6.109418605826811,-0.47039681113397014,4.433595467956542,7.925938982637703,4.493482560783898,1.365667980527625,13.981982793367761,-0.8013205463527746,0.20261684376794115,0.5522423122656942,0.25375256906568067,21.844969920583118,35.178079569038886,3.569170893590842,39.536412835663725,0.06106539907827755,-0.13014560343411097,-0.14753873125336353
301.78000000071285,soft,1.2403533503410993,1.494950395332882,4.611976246249196,-6.998024932310006,4.873938170611307,5.425894656093259,-0.4919599155324942,3.7160289688452233,7.517420332713287,4.48185110802299,2.0066973598630526,13.677178411646407,-0.8327108192615045,0.11585744504571947,0.5033132368856754,0.25282929604790544,24.99835997392186,32.15975572097722,3.6559849422823847,39.40968713864819,0.04921709330194807,-0.12256878687876845,-0.14980905082847082
301.80000000071294,soft,1.2326608329499904,2.2568285112195925,4.947555422353777,-6.670057796960351,4.053108741006719,4.754915905089857,-0.527108556194044,2.919212646820757,7.150326592343011,4.451898455252301,2.6902104880684115,13.371110954508865,-0.808461036138079,0.04019678746655511,0.3767450320529092,0.2521027432214754,26.71772252868042,29.360155225111853,3.8646522177255704,39.7055182877631,0.0372765114666818,-0.11630891149840288,-0.15156187666585005
301.82000000071304,soft,1.2338975658326508,3.0888187270364154,5.2240302363444435,-6.36797088249422,3.2166630450655957,4.112659095424108,-0.5750225727810054,2.068581594443217,6.818221063499823,4.4085172316849945,3.428316663243915,13.065415514122428,-0.7484149524622016,-0.025667936055749106,0.24976516022075645,0.25152294023973154,27.826211274513334,26.893505892874696,4.120708522728882,40.295485276153855,0.025324626794395805,-0.11124790033415287,-0.15284780925094066
301.84000000071313,soft,1.2558935010886179,3.975284651466107,5.472820852340965,-6.091575143982109,2.3667669347777376,3.5092467973514347,-0.6110864535912074,1.1644247592409005,6.518170057362835,4.375621981603801,4.219099972214235,12.770007557259744,-0.6738800230132058,-0.0891027063581093,0.14465902208904205,0.25103999006035516,28.600910054524743,24.830450243239376,4.420919597821676,41.143511060497396,0.013497005061524354,-0.1072265799875085,-0.15371866439450854
301.8600000007132,soft,1.3051716036437,4.907838990334493,5.705925192129477,-5.8363571924142414,1.4930617443223548,2.951460450287246,-0.6330317129912046,0.2137742331828587,6.24185415870776,4.357933148464716,5.054199797409583,12.487856789502224,-0.5942585813989963,-0.14151378158598965,0.0734583939767894,0.25061327880385925,0.0,29.13097199401186,23.24995188144274,4.738439444687548,0.0019402319723025273,-0.10408905144519863,-0.15422200109965017
301.8800000007133,soft,1.3870744609854966,5.880848639561022,5.931096176568456,-5.588997401576449,0.5801470763320299,2.4474340975354987,-0.6523875121948712,-0.7749113208939464,5.984737646810973,4.350578202204224,5.921578263896231,12.217780264538511,-0.5197642914287475,-0.18247082829099864,0.02821086677748169,0.25021508643013046,0.0,29.493485070029173,22.156159650800127,5.065335574719428,-0.009218866047303933,-0.10169599883598032,-0.1543618143750422
301.9000000007134,soft,1.486545442446021,6.885864790119739,6.142291033991639,-5.326653728897825,-0.3862812549083965,2.022863031528157,-0.680448987314953,-1.805026123543801,5.750302664103009,4.341721933604252,6.816188979148675,11.951682702891274,-0.46139053605861474,-0.221070861013853,0.035941549300852214,0.2498291305398651,0.0,30.007977782133302,21.640263544352177,5.427039816605268,-0.019932821941199042,-0.09992838019989057,-0.15414100361325406
301.9200000007135,soft,1.5570689988578263,7.914344333325656,6.282516075176651,-5.0412495592361966,-1.3883907150204948,1.6658427914246035,-0.7695002681643267,-2.896503423795998,5.54633094843424,4.280813892349958,7.714786888306302,11.675723148638006,-0.41334036160893123,-0.23692373332918987,0.08287513757357286,0.24946054380138125,0.0,30.28294020639377,21.915622444858986,5.836638511486139,-0.03029126426602217,-0.09875604416099934,-0.15356748810199336
301.9400000007136,soft,1.617982227613404,8.959995445153215,6.382287174334433,-4.706401215344353,-2.390395464485244,1.3908646194101668,-0.9192228195798446,-4.026798007212039,5.365400811843554,4.177502619280358,8.615548749355613,11.381685561117445,-0.3482131517923124,-0.21723497404178732,0.12270744035575604,0.2491274505063204,0.0,30.044646722370796,22.506478092869983,6.2013489189036655,-0.04047100129710009,-0.09816174268001007,-0.15261670003843564
301.9600000007137,soft,1.7100401762934139,10.000408847817681,6.494631909705204,-4.322651416782061,-3.409522660927737,1.1986205011146611,-1.120244659160437,-5.179269166260323,5.204439704492708,4.05837843040598,9.49191727460506,11.109687623760077,-0.30263624741045264,-0.1945173836926589,0.15364188614893914,0.2488426571023214,0.0,29.65518160762612,23.11971464702577,6.588426377991603,-0.05054830308438549,-0.09810036532297613,-0.1512009006026595
301.9800000007138,soft,1.8322520676220129,10.968028413957883,6.716104635246007,-3.8736016198392234,-4.369143026802461,1.0754797041455013,-1.3929967090818465,-6.327483349643847,5.1048871867020775,3.91461621151692,10.35924510400134,10.793550762211208,-0.3195390855698153,-0.18338118856078797,0.29085171581658453,0.24862687696517558,0.0,30.22266371814597,24.543058396041193,4.811621246241927,-0.060588682901998585,-0.09849375064230206,-0.14916166240654607
302.0000000007139,soft,1.959409023526503,11.744411012754307,7.022766255382188,-3.329322400257977,-5.2248685020008425,1.0128969993871841,-1.714405625647231,-7.49542569543161,5.042155251304541,3.764903288888951,11.170457761022993,10.459874429045499,-0.3660839097472104,-0.2098422048918922,0.4292228457535095,0.2485340201980264,0.0,31.828374722456754,25.581646252899695,5.071986330655005,-0.07053187564533082,-0.09945122370254081,-0.1463359885953422
302.020000000714,soft,1.604799033256835,11.87323778246964,1.064598992836574,-2.5000106197054457,-2.1225709222926743,-3.3352529919772866,-1.3583457460753425,-3.9912263175261824,-2.332887935188783,2.6412923490314903,13.768154584537537,1.5842262960091453,-0.9798704739634065,0.28454511455803233,-1.3560847377076544,0.24690565039011916,5.919046273156018,24.053082685211738,18.591911943043495,7.252023084453565,-0.0823110627227819,-0.10602345373481682,-0.14258327432549964
302.0400000007141,soft,1.9400382120486692,13.04642951671099,2.430235797544988,-2.136827132686655,-3.7566722237808,-2.552188224463846,-1.726483995298873,-6.0816064082030366,-0.6578752951493776,2.6151724844886584,14.716718237480034,2.647165281779616,-1.1582724352545832,0.08356452949862632,0.07218310572095411,0.24463520640596473,4.856423495935775,28.501656238420296,24.45088590459397,10.505729809686141,-0.09468059463429847,-0.11324299800478616,-0.13811739645109486
302.0600000007142,soft,2.3079484337934324,14.205139819080102,3.412418218941159,-1.5836554419916227,-4.882819965732653,-1.8844484134596868,-2.2783939333394185,-7.789837384678071,0.5161365406532354,2.4696843667090924,15.534402346811067,3.4388465623322713,-1.1069908019478225,0.046377159787468134,0.6444941758920467,0.24239384320724489,2.2581318489084903,32.314017607730406,27.35409490117932,12.716110630203389,-0.10696894971861946,-0.12000404184440476,-0.13239299654104553
302.0800000007143,soft,2.727906068008299,14.97027568593019,4.568461993574946,-0.8205582858148261,-4.1611266858036995,-2.0950458961044234,-2.8132803013819547,-9.130734151256188,1.6793857151603788,2.433337658299591,16.044606054608305,4.414700204443758,-0.5752077779349161,-0.6065293943843857,0.4305180802256938,0.24037140317509215,2.9968348033793593,35.814625476975,10.626109629438425,11.890107115573391,-0.11883773608183969,-0.12670708093310087,-0.1252409088372602
302.1000000007144,soft,3.556736424571519,15.546930874578354,5.646571975385864,-1.4094218412952548,-2.356370494107855,-2.209304678151013,-3.0371413191643257,-10.081772301456038,2.9519642560628157,2.793693773478237,16.208024604688525,5.7960415149478735,-0.04611311354283138,-0.8833979062154059,0.5470860533135776,0.23853709902401202,3.0836329949774814,39.872403686577975,7.801409000868792,57.79634561933442,-0.12843696875125063,-0.1334126296443785,-0.11656982104934815
302.12000000071447,soft,4.211058188689179,16.032341909629224,6.545284668880365,-1.6819767757508661,-2.4109058915619563,-1.822770989622982,-3.336900145314358,-10.813063131370113,3.903209311971631,2.9840343092723987,16.3696803075324,6.97451813425624,-0.10619771220976885,-0.8145254028555258,0.8805491617190219,0.23692631597093314,45.19953819138931,66.22093470375529,11.528781965519263,37.103263242541516,-0.1350412707267786,-0.1402218829866593,-0.10647074855207031
302.14000000071456,soft,4.638713615962359,16.306111791596773,7.273910566387119,-1.6954217219409389,-2.634584212556944,-1.4533467625207894,-3.6855714134594586,-11.047701107775929,5.107936963777467,3.034653605152164,16.48730435884526,7.915264291863075,-0.053385324349621,-0.7690456590726599,1.2267372117624227,0.23566944463395542,47.09862085037964,67.58324792042762,11.956771783793348,38.90322847912387,-0.13971074604476455,-0.14720871628100066,-0.09531430590459271
302.16000000071466,soft,4.972717613469879,16.328051196186863,7.797502435878162,-1.6820291351587155,-2.8364624521301813,-1.094269118290567,-3.9503503433041818,-11.118960291271364,6.290633003404176,3.069116487030924,16.518853072627497,8.646688951254792,-0.050378595464085026,-0.802494957394733,1.3052514673600872,0.2348894600402701,47.89501866403945,68.62700325777672,50.403130898984244,0.0,-0.14252137950804006,-0.15476261522720292,-0.08338677491325952
302.18000000071476,soft,5.253868515080323,16.149012673160385,8.16675103431566,-1.6628152012299822,-2.998799478145214,-0.748009478138093,-4.188352585100325,-11.010999457007358,7.4147796626420135,3.0787015872038324,16.41958330849397,9.261115800517416,-0.051522248938601765,-0.7879213825401316,1.3637638077000687,0.23462559170753977,47.96811246175625,68.89445829527813,51.20779197105092,0.0,-0.14334743474370518,-0.1633001743585527,-0.07083521983722851
302.20000000071485,soft,5.472291968971134,15.852163142815652,8.431867490765597,-1.6477679656429025,-3.1314641496837705,-0.20663419854261958,-4.403952035652223,-10.717232438689102,8.410089231003003,3.0734712750571473,16.20066319388456,9.852208911580787,-0.06895721574754449,-0.7280137736654442,1.322179888219187,0.234893957291294,47.50198088030199,68.17718794343033,52.201422377809884,0.0,-0.14228362298243252,-0.1728791516713374,-0.05769253308962832
302.22000000071495,soft,5.615302969115146,15.466703545335047,8.60639292515599,-1.6171977584491581,-3.2115260374642354,0.2026212909718088,-4.586466323170649,-10.30638478012063,9.291722524865671,3.0499440742776516,15.899640756882565,10.398653353777421,-0.09605318417039146,-0.6360732944477547,1.235553324408889,0.23567965228546933,46.547029282577085,66.9316294534855,53.209106784576264,0.0,-0.13951576569318744,-0.18345639235316108,-0.0440816324878224
302.24000000071504,soft,5.699780968293659,15.024493850385806,8.714878626066596,-1.5889927871641076,-3.2724451202555365,0.5093814898973081,-4.725398419009741,-9.813800235515313,10.058849870244176,3.0187600221473057,15.548082393923401,10.891420478315295,-0.129879955241983,-0.5444709931339334,1.0919450569204572,0.23694446785673606,45.29399328650003,65.33119092407487,54.155876385600024,0.0,-0.13525853920239272,-0.19494205914226045,-0.030132629059719397
302.26000000071514,soft,5.73614928842217,14.552193152512737,8.77414342166998,-1.5590821795858736,-3.3065686682651645,0.7952344759643397,-4.827003082410725,-9.271047494115011,10.718408620322261,2.979626175548285,15.164925023540281,11.329918294375439,-0.15935401614574615,-0.4499909898370634,0.9085358047609674,0.23863091179414667,43.8536279364323,63.3841114133416,55.03154522606522,0.0,-0.1297298358603528,-0.2072001652583596,-0.015961716518184215
302.28000000071523,soft,5.588021063307551,13.934912964496469,8.66615746078271,-1.5122825362648047,-3.315802209857159,1.0651000411101244,-4.872165320859458,-8.633140556762264,11.44798936979365,2.934780833314363,14.744823098122804,11.741363988821504,-0.1426701068492309,-0.2807506921233638,0.4875693031163923,0.2406511377691603,40.05775260995934,60.4527124716205,56.022710242019116,0.0,-0.12323563399931099,-0.22014981801022385,-0.0017227667875667457
302.30000000071533,soft,4.392243372136333,11.967269665435627,7.4456963103385725,-1.360185365072425,-3.3346143576556297,1.3364071690217258,-4.636985084599682,-7.24878707353005,9.819097600341658,3.0293209577814992,14.301570507631862,12.28476598655748,0.47322229911894304,0.7275765066876496,-1.4418825260232295,0.24275485281924108,27.34982615353787,39.75525157062445,59.09813865335396,0.0,-0.11593931780276105,-0.23319635498662156,0.012712516211830897
302.3200000007154,soft,2.796621480373327,9.344047559267993,5.77936832452791,-1.2825181139859083,-3.2928293090862706,1.5901382641840405,-3.976677792226747,-5.953002391397392,7.468415417522065,2.9202902447175174,13.714467311652252,13.124255783140686,1.3159351252100344,1.2182630487645454,-2.016293417930113,0.24422671380067126,17.47019029020363,17.51789027105715,21.400194136214754,61.84625504116972,-0.11012292850951273,-0.24627015160050902,0.026770046197917067
302.3400000007155,soft,2.58381999016203,8.568924891249285,5.636290910622062,-1.1423800871299101,-3.2050166250011927,1.8317782402915652,-3.7865813822001133,-6.155110997119747,7.034609683592713,2.979274352924512,13.816274221179807,13.38757581511122,1.373688347000833,1.0001307867718157,-1.4819764761268093,0.2448363887962124,17.820114237501873,6.456791835570967,16.534164498116876,1.870931745250222,-0.10662785431962553,-0.25716862812466623,0.03986587846580255
302.3600000007156,soft,3.0357032694622355,8.76007785865725,6.48681709006962,-1.1872192605825238,-3.146555006290164,1.9804954100561165,-3.8479928077050167,-6.190467091534293,8.186505629857379,2.958200490395269,13.927501187375913,13.547609067789264,0.9315655493676944,0.699215581715645,-0.8859319456397169,0.24485812225772186,25.07615181731041,7.002871102198402,12.257129253486257,1.0395345607298074,-0.10471905918903043,-0.2644494253914859,0.052364048748143995
302.3800000007157,soft,3.6394617642982507,8.968452559882653,7.477186797318962,-1.2521383880514083,-3.0625992629771357,2.1013485185783907,-3.910767183463743,-6.191393506318656,9.644244518370893,2.9656739810377726,13.920040943999467,13.646366172547912,0.4374769130272324,0.3586407753838535,-0.2676706980492881,0.24454824233453165,32.072999680256785,5.960562717931481,8.204882302230684,1.2772937131687236,-0.10381599156450719,-0.26915841651396816,0.06448272949342229
302.4000000007158,soft,4.15352751001016,9.269841944444504,8.031831289525776,-1.2879549859099453,-2.9782252278271244,2.212442793065658,-4.03340144208468,-6.094553527873854,10.805327476303123,2.8634393688899227,13.808501483334396,13.680683800870485,0.3937258904743388,0.038988835886652584,0.02132433897523647,0.2441324867936428,34.796005328937184,4.09776164304528,2.437967613261018,4.1965135871316095,-0.10353433775822228,-0.27216698544720125,0.0764162843295744
302.4200000007159,soft,4.645009353179845,9.568269999716744,8.383820920620494,-1.3028207811075128,-2.8723856468237186,2.3084554484851942,-4.185712495715176,-5.86358390698741,11.722798949750334,2.701128598955082,13.57873167709608,13.695058540649914,0.3332217349393408,-0.0950393570949518,0.21424175007742632,0.24373062280432964,36.07203048814963,6.849064234974792,3.2764553396177156,1.258041821380846,-0.10355190697609812,-0.27388044815097723,0.08844682654070105
302.440000000716,soft,5.102833904538037,9.818587011010596,8.618311224385346,-1.307202273300958,-2.756534732228559,2.385475429051821,-4.339088158896864,-5.499345408742952,12.456087835432449,2.5056769325492487,13.283023041322975,13.641526960116103,0.318386292416936,-0.18878175429291166,0.31415358412524813,0.24341398181305557,36.754906292005636,7.643884920927127,2.799695747701251,0.0,-0.10371543542314537,-0.27448645069756633,0.10070764756014881
302.4600000007161,soft,5.511521784277156,9.94441733345587,8.797962033753048,-1.3102395160884979,-2.629224028690291,2.441865983329887,-4.46525731665596,-5.05745636684127,13.053259005053503,2.310467808737781,12.918425345091338,13.537686824537309,0.2788668369750659,-0.25839567123546303,0.3771617403123147,0.24322249560018522,37.6895601441957,7.505638655181525,2.043264076281454,0.0,-0.10381569787110764,-0.2741885180866762,0.1132321699051405
302.4800000007162,soft,5.85593420786281,9.92829651959692,8.923225879745887,-1.3169592360708338,-2.490042034003075,2.477939661706433,-4.5496330037434545,-4.572677276504181,13.538016752734043,2.132564381271807,12.497177391052638,13.386275423044257,0.2124303240010832,-0.31648485764341716,0.40550915423353245,0.24318073582062047,38.7250341821397,7.132096054560259,1.3891102968176527,0.0,-0.10363312762140381,-0.2732202270600834,0.1259840018338106
302.5000000007163,soft,6.139562339378721,9.819765009656845,8.960560720197796,-1.3239896672853382,-2.3395064908016074,2.4961862785510167,-4.60145876996337,-4.061017444756682,13.92867672170589,1.9673302889445683,12.040648419964239,13.18712990097234,0.14449768080256567,-0.3621788847052412,0.38180346962720724,0.24329790472080828,39.40677161693283,6.626247510918372,0.8292998199100684,0.0,-0.10301082409116674,-0.2718007781131183,0.13887676128234877
302.5200000007164,soft,6.368496104050466,9.643438296557871,8.917535552782992,-1.3281304056007408,-2.1791948646764423,2.497963776170449,-4.628424565603098,-3.5330378139492256,14.241207329491026,1.8122286753203902,11.565405486616022,12.946813348027346,0.08016846450659587,-0.39893726183566214,0.315857673694313,0.2435633406457599,39.7347264673675,6.0438971593375586,0.34185245352203714,0.0,-0.10186307270619435,-0.2700905765010598,0.1518056153795643
302.5400000007165,soft,6.550333866322504,9.415317019761869,8.809113383210054,-1.3291591511734477,-2.0104358891164678,2.484115570505204,-4.635536979442302,-2.996759980171288,14.487854798629794,1.6672231191488425,11.083320365431005,12.674587613320979,0.021170947143763164,-0.4309291338445724,0.22138765079938547,0.24395007546919503,39.78036733907473,5.358118597767277,0.0,0.0,-0.10014402520110648,-0.2681931534626917,0.16466425580392766
302.56000000071657,soft,6.692427724202322,9.148286639806079,8.649769811867678,-1.3275461282818894,-1.8344138942304813,2.4555164231158075,-4.627392155708424,-2.4575287798924013,14.677144806744689,1.5327837487587859,10.603303305318072,12.380040782963807,-0.030133279178499936,-0.46184494959050115,0.11134717372089221,0.24442024598066037,39.61619772262733,4.381843065642783,0.0,0.0,-0.09783084977448668,-0.26616389522003997,0.1773503127252836
302.58000000071667,soft,6.798293360630094,8.855512245557023,8.45531869336234,-1.3255742346994042,-1.6521246656721251,2.4127482357291203,-4.612720334611345,-1.9116269213519086,14.814013053364175,1.4065164136169317,10.124927543295268,12.09380668307044,-0.0709867742448036,-0.46221086950851853,0.0071966765603172405,0.24493181571387854,39.31550614394409,3.258727651483863,0.0,0.0,-0.09494174583829136,-0.26400888910965054,0.18977101303841712
302.60000000071676,soft,6.8784082131937305,8.55002103825739,8.22543516943215,-1.3220040821932917,-1.465240928093324,2.3569315439966863,-4.587482628702333,-1.3693256499467692,14.90816686705352,1.293396789724651,9.662650147589755,11.802516942448056,-0.10525149201973982,-0.4819951340420353,-0.09348699758050616,0.24544202472604115,38.99552109271314,2.3630416932374785,0.0,0.0,-0.09151814281042422,-0.26170161284972815,0.20183067578011016
302.62000000071686,soft,6.947503841052834,8.269689650264505,7.90520952850276,-1.3217633464579555,-1.2766262515286377,2.288116455137925,-4.554684699837923,-0.8426240813916577,14.966980363336027,1.1958237855640677,9.213156407226691,11.50196773737517,-0.1205554713706476,-0.5105904309334666,-0.17436799974581937,0.24591210077179218,38.746401097979984,1.7345662588665502,0.0,0.0,-0.08756361474020262,-0.2592303061662051,0.21341940390589564
302.64000000071695,soft,6.992496334155909,7.980679145075091,7.538865240978671,-1.320112233799907,-1.0851994693059277,2.2091376839420898,-4.518676691860136,-0.31620835695415206,14.991120142030853,1.1150485609165186,8.776921320500081,11.197744046098386,-0.12077968440722592,-0.5393501621407183,-0.25550613220590895,0.2463098379147948,38.35793559637458,1.31495030917372,0.0,0.0,-0.0830738254128704,-0.25657829071445304,0.22442339077587048
302.66000000071705,soft,6.980869087740901,7.623304517188131,7.237055642769495,-1.3157864150640755,-0.8872817820313905,2.122136297895646,-4.49609157335243,0.2473052413523904,14.978703582344256,1.0363949321994224,8.38055087067643,10.874661955508744,-0.13526354598739246,-0.5087939769263218,-0.3269100562978189,0.24660247365565358,37.61699121504507,0.15584261884425946,0.0,0.3658384130099126,-0.07808097634303211,-0.2536744236636287,0.23473524403966733
