time,terrain,torque_0,torque_1,torque_2,torque_3,torque_4,torque_5,torque_6,torque_7,torque_8,torque_9,torque_10,torque_11,accel_x,accel_y,accel_z,height,contact_0,contact_1,contact_2,contact_3,roll,pitch,yaw
100.02199999994829,sand,-0.9818544633964914,12.968708125854427,1.863090917616459,-1.1884032491641665,0.20825389271389483,-4.648165201900902,-0.2211225084166074,-3.457289568484468,-3.7237596243397633,3.723535955604755,11.511664267729794,-0.7546670581165511,0.5442762737015046,-0.4640871668638018,-5.402673338459157,0.30175705304199035,22.079553509433975,24.364573594265423,18.017415345307157,0.0,-0.1526572053725875,-0.0486660144816646,-0.18407725009347128
100.04199999994825,sand,-0.5885910865352535,12.23495142402874,2.0238476954654523,-0.9176632042427019,-0.5310447327982054,-4.035691841750358,-0.657281326486125,-4.9939743951104,-2.6927367653417082,3.5577671857504294,11.185306476166328,-0.17195856498702966,0.10217041317928567,-0.46472760834020693,-4.816499199185567,0.2979013994708344,21.96100746749336,32.814874098959535,19.26245784599323,0.0,-0.16055605401214218,-0.06110028887825908,-0.17930806900517293
100.0619999999482,sand,0.027575357988187665,13.043235494480005,3.2110844705729935,-0.8957319809807867,-0.9078746553997716,-3.498632249023032,-1.1060615226380328,-7.4689064217016226,-1.1794979909824956,3.7731592553238666,11.95806273669652,1.3548283217269645,-0.30975498050893235,-0.5315743287751514,-2.900287025131718,0.2921990512021009,27.04122875557254,49.255918011528074,27.52310716945712,0.0,-0.1675677028126954,-0.07412014377820389,-0.17196529606042
100.08199999994815,sand,0.842725301977141,15.218066928049025,5.409633920825096,-1.0153287322208164,-1.124306992089882,-2.9848645277689236,-1.629729442151976,-10.437425351653294,0.9400974129541844,3.954289581657877,12.993263045640578,3.8286625184551255,-0.7111329412204157,-0.5385539511459045,0.26509285860795223,0.2854900591535376,38.01052257032726,70.98351028801689,41.91804879766571,0.0,-0.17336316143480035,-0.08377118446061192,-0.16205209095688658
100.1019999999481,sand,2.0044594419932964,17.842281347176005,8.020845315363031,-1.261867502543858,-1.494661992357183,-2.5925449697232414,-2.0598722729112473,-11.856651554236517,2.6473141059749086,4.073122723266808,14.271671645722577,5.482543228466351,-0.23357731180663605,-0.9502562248761991,1.8265806865217509,0.2789128586042092,51.081646057358775,77.61071259850634,44.433085412500425,0.0,-0.17748126310782975,-0.08781041084209544,-0.15038705406237202
100.12199999994806,sand,2.8952400424721274,19.207659631757704,9.59154642520586,-1.4046795347629002,-1.8745334251787842,-2.2120061569676626,-2.5137008328709203,-12.622069873923683,3.4254596311228305,4.026859336188109,14.742479722776626,6.46474892537694,0.008128286287818972,-1.0752226850295783,2.1653547777629,0.27304423356591956,57.279306338195376,76.52370770329617,45.29870091371823,0.0,-0.1797545172759266,-0.08980313407926781,-0.13809860046402836
100.14199999994801,sand,3.247350876009281,19.50052550906186,10.151307688727233,-1.425122533103062,-2.160474827655799,-1.7995771398804603,-2.8737273533487957,-13.167702923102775,4.253301857489764,3.990515611396349,14.830900077245527,7.56563291882347,0.1459699474077993,-0.8881840143406088,2.2804761838541876,0.26802278487415554,57.44322706835356,74.89371492850506,48.94515158226278,0.0,-0.18030036739871166,-0.09235066105140359,-0.12595823490167915
100.16199999994797,sand,3.3283541137172032,19.31012014376756,10.39892354394641,-1.4299311840860887,-2.3975173571452286,-1.3997902251037226,-3.121979532233418,-12.995864136323327,5.016360425066441,3.986424236403867,14.83596913079575,8.691465230356041,0.2965771749145536,-0.6138896095304789,2.234494897881759,0.26389466362810277,56.3082866244607,71.56326565694944,52.88205317402916,0.0,-0.1793059466980988,-0.09578294857376651,-0.11429998799182933
100.18199999994792,sand,3.263946268781449,18.849572683224267,10.484758706290283,-1.4320741756930262,-2.598770517121796,-1.020045490484546,-3.248222895579948,-12.532702715324653,5.689237697310534,3.9806192551289,14.714394997261135,9.744413885693948,0.4227792119946688,-0.30863384639672076,2.0668405619265298,0.2606398898611976,54.44292425311731,67.57457042292457,56.546828255229,0.0,-0.1771478598795787,-0.10022126919362072,-0.10335592042274291
100.20199999994787,sand,3.127068896522779,18.268601113842,10.490467709486268,-1.4316838610649603,-2.7585165101909412,-0.6574168420029256,-3.28506261888496,-12.002161990855496,6.332990465872483,3.9702768410623888,14.516437163145644,10.697672822800346,0.49983185041220196,-0.0278604020441067,1.868038029411697,0.25819272301304197,52.252426046847205,63.990048148820385,59.70224241866945,0.0,-0.17429776337942407,-0.10570820815184098,-0.09332201179544061
100.22199999994783,sand,2.9691968396727955,17.654708072745557,10.469983015661013,-1.428535701404131,-2.8864621502108623,-0.019943381715138514,-3.2698528435824925,-11.453069644991935,6.946105083985024,3.9553893224900403,14.282203244409128,11.52772236146902,0.5489434519662455,0.21220360850793357,1.6588544476314397,0.2564737508647268,50.04840526584675,60.86708025684805,62.11839994771444,0.0,-0.17118757501816945,-0.11207974155807143,-0.0842804369832359
100.24199999994778,sand,2.8154271063625367,17.03845194010455,10.438269613581165,-1.4259132230177758,-2.9747909728996547,0.31407684877060027,-3.2230917125395573,-10.899659241888235,7.575384295927642,3.9357307430172996,14.011332362365419,12.232076948464757,0.5854381978224298,0.41483363367431736,1.410777632431825,0.2553993938865629,47.940155650174795,57.86148688752968,63.84576473063668,0.0,-0.16819038811613532,-0.11913866433749212,-0.07623001069309929
100.26199999994773,sand,2.6387476026197305,16.426257514485357,10.394092996284094,-1.422917377923249,-3.0387760521030156,0.6195883273251805,-3.1530284182468282,-10.286056988315059,8.28560265260458,3.8898503523540513,13.684964894529813,12.837568260860941,0.6121197758750065,0.5912102825796592,1.1628067952665562,0.2548712446813399,45.90597900993296,54.97866438366727,65.20937158678376,0.0,-0.16572088395517748,-0.1267628109899772,-0.06918274061068433
100.28199999994769,sand,2.476123550615302,15.844161215342242,10.410224224347763,-1.4177773973733152,-3.071219283292532,0.9054882112037039,-3.09917887393826,-9.753648841643585,8.829982063986915,3.836915052242012,13.350802153499913,13.331398764813553,0.5810157390898429,0.7084662953163042,0.9490919636594736,0.25479389147038034,43.94799255973668,53.39232851933742,65.85716482359399,0.0,-0.16415198978148415,-0.1347928867023614,-0.0631432336948367
100.30199999994764,sand,2.3559742222527627,15.26549805552423,10.568206968645027,-1.4104583377606414,-3.0798855680133936,1.1684583012107947,-3.061112468163944,-9.257136298232856,9.386096075878893,3.793291254120076,13.043761622737852,13.710411851458634,0.5055850720995103,0.7416104051063044,0.7557164618677507,0.2550822175148436,42.31407889092416,52.44281904582639,65.54208299159605,0.0,-0.16361785517163602,-0.1429119877804816,-0.057979726613382236
100.3219999999476,sand,2.308880891617817,14.833989405783463,10.597733173180096,-1.4040478972838721,-3.0691604685993292,1.402695640204982,-3.044433334306338,-8.78040270344084,9.933809343469727,3.755659185827487,12.698105150164775,14.013957218739298,0.41455414571312,0.7238829172148362,0.6150132457225188,0.25566207512715644,41.386690034677585,51.912658802616896,64.9486229094742,0.0,-0.16407679971311107,-0.15093396158713754,-0.05343518177255134
100.34199999994755,sand,2.327845971357783,14.483201656055268,10.661064901631368,-1.3978215133020828,-3.0363625269785848,1.6112709665352671,-3.0449001952948693,-8.306094950529255,10.458518970290045,3.691786206645821,12.318455402164581,14.226110444309159,0.3461559857799141,0.7107732401677483,0.5271238657209807,0.2564805117228633,40.85252601198612,51.64037927905468,64.45761670034005,0.0,-0.16550541268795918,-0.15875739157377403,-0.04921288367321796
100.3619999999475,sand,2.3894956456464875,14.176458096424327,10.726283356629889,-1.3918430888017324,-2.9839584921028264,1.7951156552261818,-3.0497781081362474,-7.837077075428894,10.960312627949936,3.6095236239569792,11.928135163149843,14.33049758635899,0.29811126883160227,0.6983569048466332,0.4565612471616072,0.2575028552081707,40.510973666870754,51.6073080851493,63.80245565556741,0.0,-0.1678830955949898,-0.1662787815192912,-0.045093883595023594
100.38199999994745,sand,2.48298514602445,13.889502054779065,10.773159983672278,-1.3859080377982729,-2.9149669510550034,1.9548593816235904,-3.0558159999152426,-7.374071007286233,11.444006405711118,3.5194978973670787,11.53600350645613,14.325455113950216,0.25480436453977257,0.6719925184290173,0.3839924626005853,0.2587008920633731,40.25238125582683,51.81825462707901,62.78705114374034,0.0,-0.17115620258223826,-0.17342683692755623,-0.04095558379574701
100.4019999999474,sand,2.6203649084312013,13.601456303631887,10.785258802316912,-1.3737297411907088,-2.8363152272749916,2.091563655631912,-3.068788737847699,-6.923063224314779,11.926397871036977,3.441988581040958,11.076920470417935,14.323087628293814,0.1940250863801648,0.5687210164010222,0.2397959385437524,0.2600391362361314,40.013934124408784,52.370927923726285,60.364858493044295,0.0,-0.17520404625679056,-0.18019941201958148,-0.03669152047398385
100.42199999994736,sand,2.7816350340721288,13.329599753211035,10.77655995352987,-1.3634034412299505,-2.7321276512985353,2.2065528344531344,-3.08102395552214,-6.466593013158564,12.40310696264051,3.335107316317388,10.652706062538872,14.158913798820747,0.12295126050424303,0.5210783689853612,0.18661530314520958,0.261470893709372,39.85118839434597,53.165921013771424,58.89062355333211,0.0,-0.17986238246890165,-0.1866078053915727,-0.03219509690024513
100.44199999994731,sand,2.9652226999031583,13.074505742041751,10.747921557992422,-1.3534502916936972,-2.6172850992240715,2.2986740894985225,-3.092960379608331,-6.0121325311739255,12.871928144270987,3.225090943716583,10.255038567982002,13.922087437157545,0.0527609761129181,0.45797184884794895,0.13648343667682256,0.26297290663847356,39.751920053637086,54.17699905211419,57.20650534911478,0.0,-0.18503989734648066,-0.192551747509079,-0.02742598893654847
100.46199999994727,sand,3.885195965290413,13.313328639469452,11.191827488273852,-1.1590504149311986,-2.5888612257111827,2.336390565114681,-3.31638595991234,-6.641770514774738,12.596354319159865,3.342504728795831,10.96054699369788,12.460560020325264,0.48601354143902387,-0.3286811811711677,-0.596805416247577,0.2652509439524396,42.733499923639144,52.42174567755039,44.8810552091735,0.0,-0.18661271943860425,-0.19318878747919885,-0.021157716051584195
100.48199999994722,sand,4.0129099143889295,12.626829434887544,10.765971999825062,-1.2439625571898638,-2.4715952571747026,2.378609717408514,-3.1995347319862595,-5.583581552049851,12.78667919349057,2.86440372591634,9.801506427316887,12.211366925292978,1.267208221302864,-0.9775883069649198,2.2351079024394735,0.26768842870164367,41.23804104869038,49.29315645164878,45.772676405841345,45.204629342857515,-0.18767151834877172,-0.19356082728727608,-0.013230708083994376
100.50199999994717,sand,4.13596727542253,12.170662631538876,10.515206447714302,-1.2231392916743444,-2.260986025445338,2.4309521443230135,-3.1937587277428188,-5.171989814516869,12.931720671438356,2.6275610466057273,9.09190512799607,12.084031099052838,0.1245235113304174,0.09671395932390306,-0.7630667977287665,0.27003048356880927,40.00266469408251,51.41700049163935,46.78344781420993,0.0,-0.18877561851049934,-0.19417015848630365,-0.004827859992885358
100.52199999994713,sand,4.266777231148722,11.82635050109673,10.329125211470336,-1.2330114583606169,-2.071384148496276,2.457289389040773,-3.197276993408358,-4.7417717262785954,13.292730803111063,2.4357787239071538,8.5418741816573,11.843129845403471,-0.03269001173541252,0.10345687600240806,-0.6713292325306627,0.27220603056109116,39.639485383326694,53.28910469321994,46.40019697850913,0.0,-0.19016843489952906,-0.19459957116407778,0.0034941762274711
100.54199999994708,sand,4.521057468791066,11.604326131900262,10.238066229195828,-1.2183688616324315,-1.890274757625046,2.459088221203217,-3.229172653627348,-4.422203177610555,13.768702281472436,2.305269868340408,8.178456712426058,11.426152877868853,-0.1698340781163834,-0.046074536672617114,-0.5587865709729652,0.2742085645621671,39.98634427561008,56.23117423966458,44.53188675373737,0.0,-0.19155478312182803,-0.19446746821080654,0.0116901657978188
100.56199999994703,sand,4.803794194386993,11.396431749602648,10.141347401905291,-1.2325739729853196,-1.6981085687538529,2.4439441758156715,-3.2560326767823127,-4.077268725958652,14.307427381048662,2.163372153989733,7.797108723726337,11.005209102380023,-0.33396580345725424,-0.19800321620211805,-0.3940683042718915,0.2759932296671189,40.44236724199559,59.64632322921186,42.926207358648895,0.0,-0.19298299098525692,-0.19400671197745153,0.019832625792366405
100.58199999994699,sand,5.1578797285251285,11.244362680253975,10.079227164948744,-1.227659428462926,-1.511184525545442,2.4092612419727546,-3.278268254249684,-3.7742855430007936,14.89519527879727,2.018890985055967,7.527459116826661,10.496879280108537,-0.47401950222374273,-0.4237806573875034,-0.23601437872720257,0.2776269487166513,41.196092430795034,63.46634669483827,40.45566635362214,0.0,-0.19389670461918682,-0.19273979632849156,0.02816035632754787
100.60199999994694,sand,5.545943590205989,11.094545810473068,10.004059893479155,-1.220999769718203,-1.3258093729226905,2.358076177838236,-3.2762294126571576,-3.4918802625827112,15.437002199106443,1.8383648057611224,7.290968717224176,9.932199207414529,-0.5928708731134951,-0.6692082532131172,-0.12247090736720982,0.2791701343869918,41.9391224789233,67.06718472263726,37.618551952158064,0.0,-0.193875427373102,-0.19043045991163474,0.03700418358069939
100.6219999999469,sand,5.937810792605131,10.975861334791826,9.814312724710245,-1.2151050027912944,-1.1381202921771814,2.2921683661540806,-3.2357341832813815,-3.234320337681936,15.908039868840973,1.6235088414189933,7.045356458386635,9.359177806849905,-0.6924615954170119,-0.9136743140401965,-0.007611884880172469,0.280669276530313,42.93504323873205,70.3869846732094,34.85502509554883,0.0,-0.19253627776085672,-0.18696870625690562,0.04666310854349368
100.64199999994685,sand,6.283787513568056,10.838348584254105,9.589653330935496,-1.2095562494776664,-0.9440944253006105,2.2145874831326795,-3.199480358219516,-2.9802380811085873,16.297366756561225,1.3475983287238127,6.778081725481064,8.793720678855852,-0.7676321961038467,-1.1484037938672436,0.050523219774542605,0.2821669698145889,43.57033745873182,73.32716347915273,32.232886363280876,0.0,-0.1896097853906114,-0.18232453137333504,0.05733916637227488
100.6619999999468,sand,6.523154209185983,10.59610687781839,9.414361221279087,-1.2045215630635882,-0.7473689255839331,2.129094264471232,-3.148642034718184,-2.591476827778812,16.565666661264462,1.0326516108319774,6.491125023286677,8.246780611218897,-0.7632555784626824,-1.327730258699548,0.023266990664912966,0.28368266871756603,43.5829040330924,75.40532765965352,29.816225648841648,0.0,-0.18498574220021763,-0.1764329026327814,0.06912085917721386
100.68199999994675,sand,6.660303444616067,10.21064244454156,9.120951526024351,-1.2037318196131714,-0.5645361780849094,2.0288466439965527,-3.0007031826500703,-1.7834832825809608,16.657132879377436,0.8146793593496804,6.125758646545489,7.756104070690037,-0.5811680178336636,-1.3933497164196635,-0.14188123988486062,0.2851990868670051,42.848534389364204,75.6923565505525,28.184900398408406,0.0,-0.17838912465527407,-0.16943478289544348,0.08183140342753677
100.70199999994671,sand,6.632873799589783,9.644650096899579,8.680833282707331,-1.2051831471901013,-0.3866687603598419,1.9199661828241208,-2.8539036509064966,-0.7518299381113867,16.525879618256397,0.676264204446728,5.67141345567077,7.379172033978162,-0.3425187403503974,-1.3474605605211223,-0.38627248917730767,0.286647679841068,41.22701104547829,74.39239018006282,27.831091965193,0.0,-0.16972447754638045,-0.16180904868228038,0.09488451570048578
100.72199999994666,sand,6.483421430437843,8.998407913879904,8.180533822143621,-1.2057330791988228,-0.19243088208339687,1.8136349332002553,-2.7113626480569835,0.2690757325309452,16.382569728091724,0.6073005349446787,5.201799260885891,7.136908875967106,-0.1553175644987016,-1.2540484515358539,-0.5323653377844593,0.28793827845761466,39.23773838255238,73.28131074813156,28.907008996927576,0.0,-0.15917216015879845,-0.15387727860922346,0.10756079106313626
100.74199999994661,sand,6.257052244799673,8.368019025514261,7.705076433165762,-1.2066637098243762,0.19600222775468812,1.691111745380046,-2.588645437844991,1.2938676136455993,16.271409157924637,0.6036415684833623,4.838701964463456,6.865228122480823,0.019368140452104856,-1.1439810685962655,-0.5940152244263044,0.2890190759347035,37.28040797262398,72.39363714223647,31.08345914990659,0.0,-0.14705410349197126,-0.14553422055310417,0.11923256766581773
100.76199999994657,sand,6.004873915659971,7.760883438753003,7.265593331902587,-1.2067381178598637,0.5041644487285105,1.5966842065896687,-2.4975816763756447,2.2971657679738193,16.19700099467829,0.6725357403786891,4.403692279185311,6.761558782611632,0.19328675651635452,-1.0835667074313051,-0.6513500161394626,0.2898641649747566,35.46673950444324,71.80454951563021,32.61979200890006,0.0,-0.13369510223765568,-0.1365980249442088,0.12943573967131003
100.78199999994652,sand,5.7916344988539405,7.189761569117793,6.869621447555567,-1.2058275562142053,0.6986513919072391,1.4872542060758347,-2.428108955062506,3.28463310872749,16.14653789916042,0.7942531145209342,3.9762703832347026,6.634531840969071,0.33379348711056944,-1.0565185562541812,-0.7084183619559444,0.2904489420906442,33.71982212929263,71.38819496415333,33.78326947385964,0.0,-0.11928810915201396,-0.12696325735912004,0.13789649878325858
100.80199999994647,sand,5.697220818973206,6.66626324700763,6.529441444085648,-1.2041272191729429,0.8835388366149357,1.3754343791507493,-2.3701339633128624,4.262124835174458,16.103617660030935,0.967631156023475,3.522190229721916,6.516185007241789,0.47005135907372625,-1.0604769327594838,-0.7514127784879169,0.2907507726574589,32.29956299606851,71.040523310661,35.01010892654723,0.0,-0.10384073086018696,-0.11653972378120186,0.14448296379710476
100.82199999994643,sand,5.390072055014195,6.120386775129511,6.133943303333018,-0.6268960331298812,2.1967159254802073,3.4260586188089066,-2.5951320303694745,5.04823184895504,16.171448220761363,0.9607721023033877,2.9218031947991085,6.411883038153196,-0.08575255785304207,-0.4991738927363075,0.522931781106139,0.2907736839089064,29.614883594916588,24.560270428220036,72.35315362855525,36.79169163354796,-0.08782192476199328,-0.10549889297790041,0.14906226971885272
100.84199999994638,sand,4.580420089136393,4.946684964707866,4.7559629822599865,-0.49801915460164614,3.0689023318773563,7.103113652708095,-3.244432987975653,5.101291155579384,16.21611265651319,0.3626823899442828,1.5080077338740379,5.9900890825328,-2.148138225283258,0.7193821954010503,2.5626869093344875,0.29108866787887033,19.77176936633469,57.97195411644597,73.66107752938767,39.057544710900785,-0.07400368597891302,-0.09774458125070865,0.1520210525948711
100.86199999994633,sand,3.7006765126978767,3.419704103036697,3.081464148394856,-0.3440767142587472,3.808738063598801,7.210138833147786,-3.142386193166293,5.874468338083309,15.46042941696003,0.3470305547584017,0.4256920919895524,5.36391443759601,-1.8603771308016857,0.7764482766252051,1.1195691555978893,0.2922912993455525,11.202278511887075,49.5643858959618,67.59107341062926,38.39536343440545,-0.06163777982097713,-0.09464523738540181,0.154576606702392
100.88199999994629,sand,2.9276786104442314,2.1726792986907695,2.0223966309041312,-0.11392409832063555,5.2379998313712886,6.11602550267947,-2.876194365725395,7.004175691805272,14.838048750758372,0.5464673919772999,-0.4584145488395759,4.963388291733365,-0.7540825185406119,0.4994269515897414,-0.5034212545669797,0.2938716145941002,6.467253476353509,33.63589369805805,62.83765335677963,38.90403269183962,-0.04940399463985044,-0.09383395502037475,0.156895362990638
100.90199999994624,sand,2.0074236970789703,0.8605672715168566,0.6719769994223852,0.14500652650314794,6.539589901274389,6.066766808081862,-2.6345387575719785,8.334901485097753,14.604303745020221,0.7295722904916513,-1.2991886945893136,4.836446494984196,-0.34926092401558145,0.6291894220607339,-1.1023651280503606,0.29520765588509396,30.48388257260881,60.774265495620824,41.26303511666512,0.0,-0.03735983046377074,-0.0931867033099563,0.15899316591196763
100.9219999999462,sand,1.8475341427452046,0.43766746590748995,0.4881738735803196,0.12374508676411311,7.665134053860481,6.377058410274203,-2.6042624130396814,9.439553215077874,14.673947591081673,0.7699892998960584,-2.3103789148905753,4.81480585534197,-0.14661464244401795,0.6942292905591884,-0.7692773430491479,0.2961246535403055,30.81222390924887,61.52499985540565,44.85149787947736,0.0,-0.02613046836495958,-0.09216592294220091,0.16079241811064449
100.94199999994615,sand,1.7911332246878144,-0.1597493215130432,0.35820908577669996,-0.02906639454124471,8.74641704331064,6.724994216037105,-2.626633239476407,10.40560968674712,14.836520898652733,0.8104932019247566,-3.380279228104911,4.766757868242754,-0.021797041449975706,0.7162068696377992,-0.4285118943242764,0.2967470525179112,31.29215133502165,63.01306588208253,47.973615253214085,0.0,-0.016171754262593433,-0.0911358086708125,0.1619542305356244
100.9619999999461,sand,1.7364691888224018,-0.49144670116693034,0.2521069073272414,-0.19283944721472246,9.786880334462792,6.9930973654123925,-2.6625115558095875,11.317931968654937,14.969299879571608,0.8386749143495361,-4.539150662356511,4.6970061768566715,0.13324423200494034,0.6894260933552405,-0.22268507447525826,0.29720262037942174,30.950351978443727,64.18685267259114,50.17552319383288,0.0,-0.007476191956185191,-0.09018775399545058,0.1624891201627205
100.98199999994605,sand,1.6885905659679064,-0.7787579483824847,0.1872932485018447,-0.35558385113133556,10.7777026877117,7.21664814868326,-2.693829791313829,12.203387519476797,15.048604704038222,0.876788803319584,-5.710547697989721,4.545850103127588,0.23026766304509347,0.6767168325333365,-0.0693399859676711,0.29757421922732447,30.378275668361187,64.79067168217642,52.38693904098945,0.0,8.008439213692055e-05,-0.08936057065125337,0.16248543113352373
101.00199999994601,sand,1.6543329355651941,-1.0426966401024211,0.15121947839387906,-0.4381448677305651,11.754992973224633,7.408291878346654,-2.6341622302445957,13.116738103569006,15.03459692155536,1.027884291627973,-6.852998197665407,4.364232271846079,0.27405027440740515,0.6861805161226036,0.03422815069418864,0.29792040089632005,30.559688334896638,64.43444179468085,54.20612602747119,0.0,0.006798650559763604,-0.08848590174398512,0.1619420475504123
101.02199999994596,sand,1.3315007443481257,0.41766658186403216,-4.204850431290824,-0.35651222634673013,10.798529301725297,-0.1641352408261323,-2.684541689486076,16.156069166964503,2.3201962115836583,1.6116683305044313,-2.9902319623384495,-4.390318826465906,1.0053449441301998,0.3084277775336992,-5.542041625500899,0.2964075184889509,15.914019123139354,28.42121341692563,18.84057105736187,0.0,0.014546699374346817,-0.09520169749859474,0.15976619226403857
101.04199999994592,sand,1.1047847191199844,-0.10471893902961038,-3.6405686463503475,-0.5119487870677875,10.17930778154403,0.1354719965115958,-2.705511743840375,15.979101850173963,3.004431467128427,2.07807959172963,-4.7008291485172915,-3.3374751164720777,0.5985383240342295,0.44632513943148283,-4.827371903363428,0.29266432419475524,15.903218577139512,31.020744483546164,27.690607751549596,0.0,0.02223684823485822,-0.10744610439676458,0.15504711068888863
101.06199999994587,sand,1.1052090070050458,-0.7006978866791351,-3.163080805333057,-0.9546753293762409,10.560358115431463,1.1006562662711268,-2.8473041181113126,16.91037200810619,5.365092963200018,2.6820429025998545,-6.43533510099285,-2.094693994185544,0.06907565804898168,0.14172715179857304,-2.8000363525118126,0.28707096669668675,19.102338148130798,48.82179855927961,37.370418433243614,0.0,0.029021583554532215,-0.12151347738945215,0.14741634997525596
101.08199999994582,sand,1.189756870455567,-0.922071322435408,-2.6847512925893025,-1.2971592844807063,11.815989657491407,2.6546927502216295,-2.981505930416999,17.82800818459802,8.793830710566723,3.224364557178912,-8.053842148230075,-0.6091469288512101,-0.4459032019573922,-0.2386312165002398,-0.31371947767842123,0.28046968421899576,25.312071508263845,68.15009427403032,48.83221461028567,0.0,0.035604513591247375,-0.13323041010608097,0.13792227252515943
101.10199999994578,sand,1.2355605367816471,-1.337778514733234,-2.28921636053731,-2.189931077796967,13.539029163488562,4.681297913285535,-3.270691693903071,19.256386367869275,9.996455872104654,3.7798031190220898,-9.98493499686342,1.1403747934079718,-0.3143342722825752,0.4405840191312477,1.164622760274789,0.27377356098535166,34.78853344116986,68.21005630969596,60.832509026480196,0.0,0.041259908999810115,-0.14020461664843478,0.12723120777991495
101.12199999994573,sand,1.4356654191016371,-1.7268469381515326,-1.9488423276329634,-3.3973995407024105,15.196617456650308,6.782932065388662,-3.4245653351251644,19.973696668316975,10.838103538048998,4.311385105689453,-11.295134413257976,2.537536826105711,-0.08157285175703242,0.9012970951089287,2.1209168606779074,0.2675629804621289,44.521795294512195,68.77934544375864,64.92839946410534,0.0,0.04498319939559807,-0.14419061683474743,0.1149929323549304
101.14199999994568,sand,1.5664706153483068,-2.030710001018514,-1.590627059455291,-4.119304213702488,16.01063784492278,8.013850336109739,-3.3986152162136336,20.1067897768339,11.845556553599812,4.7225768613613095,-11.588338826332894,3.5557879418916682,0.09268529988946379,0.8594523672773223,2.489821704394103,0.2621948994038148,48.318538945878565,71.75765118252633,64.18050215496535,0.0,0.04728586387878548,-0.14782685707539686,0.10216299395234832
101.16199999994564,sand,1.5935731610950756,-2.289164092440422,-1.2203531317185998,-4.173211208986903,15.963394767101093,8.354980884051892,-3.344221434206338,19.98345143368342,12.883882557648308,4.884180628736083,-11.286527416274915,4.336887395485488,0.2455836163433099,0.5255790313222911,2.3885156652903707,0.2577968215253549,46.971906892185444,75.32805808335871,60.88728260319296,0.0,0.04861981210443948,-0.1523879469517619,0.08975351219195572
101.18199999994559,sand,1.5809934624341075,-2.502938262383058,-0.8566905587437901,-3.9411987117711167,15.493681956143215,8.375216259428385,-3.295768847416183,19.752788566586204,13.85310073924577,4.868539865951476,-10.790942900278075,5.027705212567649,0.32177075222610296,0.15963033788105493,2.1755804906420515,0.25433134449040695,44.40733335524797,78.53396521922855,57.329737082027755,0.0,0.04940364583208162,-0.15810160450839958,0.07820565861049532
101.20199999994554,sand,1.5672511449411928,-2.683792046562589,-0.37376645264631536,-3.6737221130979343,14.930057444383571,8.34648025374948,-3.2376606082636026,19.4706629793357,14.69924200634073,4.776893674285157,-10.26561008982162,5.681403298776778,0.35645254763239664,-0.14594078938014218,1.9410556906334577,0.251715090504801,41.97311184983244,80.94012405443728,54.233175262021824,0.0,0.0501115669262412,-0.16477975511224574,0.06762871035559694
101.2219999999455,sand,1.541136185587587,-2.8121121886909863,0.12028627750637477,-3.4377632611825364,14.385255145170827,8.33158029246447,-3.164484932696263,19.14610088961514,15.411863222423243,4.663787029633959,-9.761102541972448,6.316760073853164,0.3683202878293788,-0.39441784284424286,1.7344808706792059,0.24985851108430598,39.8821278031096,82.48565148289487,51.77485790010228,0.0,0.05118790843664759,-0.172165788483373,0.05802632367678995
101.24199999994545,sand,1.5131083521015234,-2.916317821954644,0.4388932715592775,-3.2621085226298194,13.873609279657014,8.333225796342912,-3.1278256603791714,18.78493488327077,16.001306304049578,4.524718143560222,-9.274337231170758,6.929370962589572,0.3596181699680815,-0.5754936432620917,1.5192422611522753,0.2486778040707947,38.13514849050256,83.22620383231855,49.799968472727954,0.0,0.05289853932913421,-0.1800543522532751,0.049367607895003975
101.2619999999454,sand,1.4981307080058948,-2.9913583275540985,0.7316090033851661,-3.103872886052364,13.380811864314246,8.333024744408313,-3.101154378011845,18.372115615784637,16.495474693853176,4.3582981778824434,-8.750645213433208,7.731188305707223,0.3535223533944262,-0.7268512277167184,1.2609727307669272,0.24808161941749082,36.569833394428684,83.39567471905126,47.52185330526607,0.0,0.055454745162576244,-0.18832011106937363,0.041647613406297766
101.28199999994536,sand,1.4793473240226356,-3.034907191955101,1.0029080433813982,-2.9693126312640996,12.932193170932166,8.34112568098686,-3.0731080534420254,17.926287725936817,16.900992349296697,4.22385697591365,-8.26527364998734,8.284623297989324,0.2967805268390423,-0.7995481673899935,1.0496885466612396,0.2479735546544801,35.27265521465457,82.98436847644928,46.29674489782022,0.0,0.059106874370372056,-0.19689200548678118,0.03486149919350217
101.30199999994531,sand,1.4446162147711843,-3.05121183898955,1.2549826366132688,-2.8730913163923626,12.455871388254057,8.55854080526597,-3.023146038503375,17.477200366239366,17.20334904437859,4.133724547240281,-7.796238598711232,8.85073515418776,0.2192721605622868,-0.838434627442693,0.8386175751696096,0.2482685369368998,33.80043242348525,82.03382853015627,45.663895244017326,0.0,0.06401536552729853,-0.20557793216139952,0.028836691508373893
101.32199999994526,sand,1.4189220695168978,-3.0483567407562244,1.4788550549838497,-2.855286093662587,12.120527662319772,8.643668952982845,-2.9692005705451967,17.008053171904244,17.405131526775648,4.0687407586246875,-7.340074084469066,9.404459612807784,0.15743046156009488,-0.8517333847835992,0.7057327659122481,0.24889025150431254,33.231427369264885,80.91620163862734,45.39606509368731,0.0,0.07017424299630613,-0.2141460275484403,0.02323592413832512
101.34199999994522,sand,1.4032450683974742,-3.02233775797888,1.6776673992214155,-2.8621494013890745,11.848356563351675,8.735259170514725,-2.8897080465343734,16.520621249948338,17.49776914610412,4.028918919155874,-6.89195346654539,9.954047932117383,0.10569534258874659,-0.8544711314780176,0.6039456859635735,0.2497858266564564,33.03654479533132,79.5823944821709,45.489361668500344,0.0,0.07759116100504518,-0.22250555150437487,0.01781156026994697
101.36199999994517,sand,1.3854114440229297,-2.9784868716831587,1.8529965388722882,-2.923216201174321,11.615266930388794,8.824287695372993,-2.8045728318631014,16.01917042838279,17.48089720515338,4.0067258568248185,-6.443222690025449,10.494493485593228,0.060757723994490996,-0.8470998562266616,0.511246861858513,0.2509149641517122,32.96026331321283,77.96756187347401,45.85083876554785,0.0,0.08623123600338714,-0.23061544724647637,0.012409945204030423
101.38199999994512,sand,0.547462548187932,-2.647670971093234,2.3091345691852734,-4.078252539226217,12.172095853012078,9.407968646973654,-3.770237309413163,17.023702243599523,16.02986325610366,5.1793135163563555,-11.6966708483336,9.055152926358181,1.5086543843509648,1.609723582219612,3.4734673715988693,0.2525881521447523,37.908989612525644,64.59833857742339,59.731848176102716,31.301841272456976,0.09331678849993259,-0.23592586691743236,0.006527512552530909
101.40199999994508,sand,1.2345246032733495,-2.9807996432008936,2.1032960238692464,-4.001537506878036,11.642458717882764,9.549276836291327,-3.0962473596873634,15.996125863909668,15.408129949368362,4.480269691612533,-7.4071661949308485,9.48191498808495,0.9299969732286802,-0.10272564727997757,-0.9771794528168932,0.2554007197436503,36.59760520364416,60.50744093845102,36.786490502867366,0.0,0.09634512420379106,-0.23472926171771966,-0.0016956694097878336
101.42199999994503,sand,1.2293315351298781,-2.850464245549233,2.2057437796861743,-3.9941221721165143,11.055010515639008,9.307192516334242,-2.6389256581565057,14.71624459955862,15.524472435472312,4.273245120287109,-6.295322519060303,9.769038597673532,1.8955842725579235,0.7403012986534749,2.112183976600726,0.25838763562441397,35.55206357573244,61.20857249663406,55.14058266969123,30.25226018128491,0.09994845500993783,-0.2338437037022712,-0.0109975606014913
101.44199999994498,sand,1.1645330113638375,-2.684722287787471,2.313318374222824,-4.094797377578798,10.677404534306074,9.208526190305085,-2.4183704643082864,13.920054887266385,15.417734908320995,4.225063215034721,-6.000335771778854,9.860661624312707,0.5331602431898256,-0.5203641286729942,-1.1473719215845863,0.26138483049814865,34.78331357636236,61.054391615558636,36.29220422309052,0.0,0.10422048549051818,-0.23291788590655318,-0.02036578872432082
101.46199999994494,sand,1.206510180201195,-2.5699617035982945,2.375559568024199,-4.110578116534403,10.30165913482021,9.072194636479997,-2.0881721548399126,13.027206398186188,15.310822740678152,4.102074544124099,-5.194614230872373,10.351257255148827,1.5347693033521568,0.6080014240976536,2.3190847254625817,0.264266947156499,34.70985818624476,60.03698033146854,57.809103425736616,32.15133086367059,0.10940704965717288,-0.23198891075467282,-0.029296885899476318
101.48199999994489,sand,1.0245862772380465,-2.3416694426181905,2.5266215834030934,-4.487003193240545,10.171855592548509,9.090078222488787,-2.073781438440267,12.58388923352165,14.810348083281426,4.339019612863805,-6.145456554775247,10.327123323483232,0.10563757724503046,-0.39768745137720235,-1.099280286919945,0.2669940626359106,35.43255856032935,57.768476005349385,38.917448926609296,0.0,0.11518343647198825,-0.2307740115026035,-0.03768520786548613
101.50199999994484,sand,1.127184628128464,-2.2384233582480615,2.4707110926133744,-4.617830462604008,9.82520538101732,9.129889916240726,-1.826487759107031,11.847518575348182,14.527771773485043,4.191243388748323,-4.707244883477811,11.130041612846334,0.07928322700879235,-0.35414094341266866,-0.9366269033062399,0.26949937036475385,36.52622020528401,56.684178996865334,42.353757853608975,0.0,0.12163389725747877,-0.2295521959699059,-0.04551142227369306
101.5219999999448,sand,1.169419890555092,-2.0905155118854566,2.476079687895129,-4.844357253004817,9.423395174679381,9.179507847692845,-1.6908932451962944,11.231260264498708,14.100575708197432,4.193905066364209,-4.190596852774369,11.775603862209463,-0.15418297347449772,-0.18694777068739726,-0.6928489419123272,0.2718082994051422,38.6875535057578,54.756073440140526,45.776683211842354,0.0,0.12825963958521677,-0.22814147053673503,-0.05291853423606336
101.54199999994475,sand,1.2080962621168765,-1.8959143561283343,2.477364623328696,-5.065086390755475,8.936330155234941,9.145538775426171,-1.6055285948827271,10.629196356488173,13.67633499020886,4.186138974834814,-3.7876816541998988,12.378992251165608,-0.42932017790832877,-0.02395788273153273,-0.42786782118878575,0.2738756847625746,40.44701608244551,53.19234570941866,49.24951334290182,0.0,0.13506968169531464,-0.22706952276758466,-0.06003129479446646
101.5619999999447,sand,1.2054032358095421,-1.710083203902887,2.4580554053173573,-5.37979997688795,8.607385182055186,9.052464214506722,-1.5488642079243828,10.217570503621591,13.110761950583647,4.192129244158911,-3.4490236215336623,12.982972523048872,-0.5720993567350192,0.20226247903200364,-0.28985516233240644,0.27577578230468414,41.30901125527332,50.36890982049216,52.883002939675755,0.0,0.14142529982313573,-0.22578731705143387,-0.06715396142942212
101.58199999994466,sand,1.1983837359885652,-1.5301817336985453,2.421058203403489,-5.768752465571683,8.404574285798429,8.904634868555387,-1.441512045710587,9.868917964073079,12.449834140504578,4.200342433711611,-3.1270675659442277,13.587441987400048,-0.6481075658725912,0.44328362515429026,-0.23870969533012754,0.27756028482094575,41.50458113511532,46.938761363569114,56.58703544170718,0.0,0.14696526062875895,-0.22388913760725634,-0.074718825133992
101.60199999994461,sand,1.1877295181504515,-1.346576785563541,2.369226503540524,-6.209431694162534,8.294865464332982,8.727400941087893,-1.2710000983247007,9.53171211480441,11.766774090442471,4.206982474731583,-2.823711511770137,14.174040745265321,-0.7013671496690065,0.6805912714067762,-0.19472463585050262,0.27924976071669677,41.66818129830059,43.48157752839958,60.31344111440698,0.0,0.15142804411487382,-0.22113303137804585,-0.0831042843555278
101.62199999994456,sand,1.1832789413776588,-1.1606639489393054,2.301959491631135,-6.6804383816712,8.284626545625153,8.456807369140174,-1.0480719880261522,9.176898049180588,11.089083866354192,4.207247437535551,-2.5478882418236806,14.73577332306154,-0.750096980678972,0.9183456939397078,-0.10817474833134692,0.2808647954703371,42.3681652534542,40.21192114672096,64.05016359617484,0.0,0.15457058529562714,-0.21737441753659348,-0.09258278348818233
101.64199999994452,sand,1.1787668849422464,-0.9641603304610267,2.226707059817273,-7.14446545418268,8.265096992386411,8.280642267589043,-0.7676235370548322,8.815444984047563,10.417717925052159,4.198543443481318,-2.2848791557228694,15.246652307351521,-0.7899299458133435,1.1440619601955613,-0.07826452440581352,0.2824340553080317,42.39572656053392,37.05543956203528,67.6083094816391,0.0,0.15619682988814246,-0.21250356652342778,-0.10332983755620635
101.66199999994447,sand,1.1677853656327775,-0.7635686042360224,2.1430104914829435,-7.5439614095176495,8.233236479865218,8.15073108841861,-0.45711274241928934,8.44029787684206,9.754716045354606,4.16077318606726,-1.9929491465106821,15.694810641646429,-0.804737497101487,1.3549084951701997,-0.059677754623653795,0.28397222494047675,42.460149134064146,34.04687906449218,70.8344281944769,0.0,0.15615818450877014,-0.20632364685404495,-0.11548419905102536
101.68199999994442,sand,1.167820971493302,-0.5712936259453825,2.0449617171485626,-7.84936519350855,8.117244344249023,8.001181751652531,-0.2071812335972254,7.992695741302474,9.119193515998374,4.043492710389672,-1.4202888148143717,16.00181352802914,-0.69524448842385,1.4845503166239522,-0.1258864841615214,0.2854828695235335,42.44410884147011,31.515501595540123,72.7555896565901,0.0,0.15417851815716693,-0.19876719451329083,-0.1290405112711635
101.70199999994438,sand,1.1717238147888718,-0.3973387801263971,1.9311909794963968,-7.990798346289015,7.807272935060974,7.721698105501579,-0.03740361337664844,7.432797939049344,8.557597113774854,3.919162913329932,-0.43261225717878116,16.04445576635183,-0.4444911081268881,1.4719281111901787,-0.3387590304781596,0.28693213822113917,41.693515960252654,29.86555349102781,72.40927094030894,0.0,0.15009534629835478,-0.19021510123628727,-0.14353815696874456
101.72199999994433,sand,1.1744819298874893,-0.21537404689831724,1.8179689396174528,-7.988838506585852,7.31692650793568,7.314039407365293,0.09038905764532434,6.858062514150028,8.134036293160497,3.7875734774116943,0.5842696670015006,15.954573431304205,-0.2423428232372101,1.4010245982672374,-0.5376659977490873,0.28823872488890157,40.32692141206445,29.386400598637337,71.49649212058512,0.0,0.14392482018106348,-0.18127240528719168,-0.1581485143744565
101.74199999994428,sand,1.1765491764688292,0.18311247303667377,1.693875137317221,-7.905132466622771,6.766259947305797,6.8836737633997895,0.17393014595095635,6.344775858218553,7.879719883389576,3.640140293693571,1.5519438635710436,15.913949342561011,-0.12115722829596881,1.334100000098836,-0.6237521358943297,0.28933018650539727,38.867093020228054,30.10088633215692,71.13325324486098,0.0,0.13577066809453212,-0.17216017246398435,-0.17208316504094331
101.76199999994424,sand,1.178654735643936,0.493332121645372,1.5990303740660874,-7.769052785118555,6.218981066162866,6.48060556695375,0.2008862875430294,5.907282160220092,7.65836784997425,3.5156779622686303,2.5023240299997904,15.903921433767604,0.029683157630045677,1.2149888968754654,-0.565856252807001,0.2901789518134931,37.46836242819404,32.48960335564402,70.9562202454853,0.0,0.1258759405380033,-0.16275420371585742,-0.18470783002349644
101.78199999994419,sand,1.1822731014699837,0.6966800818632278,1.4875384438817996,-7.603913179859642,5.6850883182777014,6.116222386184342,0.14774610650498576,5.473797286114502,7.509667303942604,3.4373859131572218,3.4407447351883564,15.885731046006061,0.15535365662393158,1.1667585446531072,-0.5800280322574917,0.29079748083335166,36.20840534883422,34.008711137375585,70.69882971045811,0.0,0.11460833115462604,-0.15284447112288224,-0.19551771363830242
101.80199999994414,sand,1.1843058971707894,0.8851591600997584,1.3748816978512846,-7.449545224594055,5.153561400310138,5.792219782374537,0.04200953899133997,5.034689550201905,7.374607960167687,3.411833857975676,4.351536534203884,15.872383849435199,0.2670730745362302,1.1622390839668233,-0.6007120185479133,0.29118508290200934,35.19716111989911,34.89787472474625,70.51427816868919,0.0,0.10222869508549198,-0.14232506716017176,-0.20416372032984678
101.8219999999441,sand,1.184787417157001,1.0615879946881803,1.2628142704081076,-7.315939887009745,4.544314580877711,5.55480073034605,-0.09716779279330645,4.57781313208358,7.226486097235358,3.4381087178221055,5.219415170117269,15.867241860823171,0.3764467718649253,1.1845777077009967,-0.604145195040564,0.29133440935508886,34.55827002294747,35.67583350065335,70.48849279866434,0.0,0.08887848566581188,-0.13119077228513212,-0.2104506703073942
101.84199999994405,sand,0.647769091968399,2.819595611114665,3.6441474554808364,-7.09427329955763,3.8393565801208953,5.080633266176321,-0.08282262734265194,3.8507705050552268,7.111981786655164,3.705138730581986,5.803533658518374,15.968171478573993,-0.27578911026423225,0.6088616957194728,0.7715501779399306,0.2912792071255753,24.075180740463114,30.862907346012477,37.7713364944085,72.27328260919238,0.07488189676641108,-0.11986099910329871,-0.21428738856928709
101.861999999944,sand,0.6952670086027559,3.538192316141608,6.628315377639204,-6.3116422767761415,2.863602439533573,3.695059331734188,0.31395612523378097,2.4356828361936183,6.7389617451794,4.131406536385777,5.983833098346759,15.860421331601582,-2.1479485537313385,-0.3066206872850132,2.3077150442374252,0.29157535643286236,53.525012533111,20.968657741248958,40.11069734119657,72.13544380178851,0.0621056537903999,-0.11200557680356081,-0.2164734527777688
101.88199999994396,sand,0.5154783979285157,4.168654266207418,7.059399176758427,-4.905532111514162,1.7649740604684585,2.217356247711085,0.2309932006791301,1.2455146187575745,6.193592200732648,3.9420676266802737,6.745754054602111,15.08203988166256,-1.9521682014684736,-0.5364127982128594,1.0758311721632945,0.29268947537364987,49.19244039686188,11.407029539223533,40.2171809452199,65.92053069720549,0.049971695673931234,-0.10853424224584092,-0.21823620945503766
101.90199999994391,sand,0.21222955184873726,5.555076201263806,6.024640918745603,-3.655332781164073,0.8153427957091048,1.3504765171914048,-0.08507776057066258,0.22558130341132476,5.870026840602116,3.5624517738426498,7.817912800105286,14.461137242671832,-0.9130883500141992,-0.439634436322603,-0.43160929269993503,0.2941676122909495,34.41301123597951,6.062320218194463,41.6986068019109,61.11647526753419,0.03750597120504575,-0.10752473277837553,-0.21977863347628576
101.92199999994386,sand,-0.059830317218335205,6.816810224439637,5.871747900874354,-2.418795041394174,-0.044103983323832086,0.4394396166447878,-0.391392253005973,-0.7807313299054741,5.8266765523101265,3.2336850953724863,9.002778120012911,14.231523395539718,-0.4273979550606553,-0.6124055114615641,-0.9934344790830095,0.2954528997619174,30.102098188752223,45.08070390685284,59.238818801316924,0.0,0.024963212127048467,-0.10699798055467274,-0.22102325113363486
101.94199999994382,sand,-0.052231983417617034,7.947160443273984,6.128998673081147,-2.142664770448773,-0.44630217902294145,0.30854572338624053,-0.5231981475244771,-1.8564856311169275,5.858285696550286,3.1396213636496393,10.065567177541505,14.266398404631541,-0.20460655133995428,-0.6651245396456162,-0.694587113094422,0.2963664441335046,29.669702183030672,48.85896952088267,59.668251713211966,0.0,0.012972757422898778,-0.10619358166677441,-0.221893031401781
101.96199999994377,sand,0.10414642541446684,9.024277185411961,6.457193864692792,-2.042881202529048,-0.7308396511122985,0.21417359936444225,-0.6149263462279502,-2.963836134205797,5.837142214623494,3.1298486506934657,11.012880521892324,14.379097573438326,-0.07514186565427107,-0.6910723476768813,-0.40257525679060535,0.2970132562512515,29.78955090858523,51.97741646440055,60.72287673967827,0.0,0.0022457720802500376,-0.10534187543422754,-0.22211392815861228
101.98199999994372,sand,0.2816030837156569,10.079475790722352,6.727484553393377,-1.9656493608347017,-0.9961335738162731,0.14988788824088495,-0.7293103437045014,-4.114798075688884,5.7833063830091245,3.116237505048381,11.909238014230482,14.468078153337055,0.06097416071537558,-0.6762883751477473,-0.2186601300163811,0.2975033428189879,29.69811756331327,54.07999477972434,61.542806702156135,0.0,-0.007261958518759979,-0.10448065048409012,-0.22164327193932062
102.00199999994368,sand,0.43735596249701253,11.04198534643969,6.9786533490313385,-1.8994721845035443,-1.2417803144634036,0.11538734202515144,-0.8647737266336917,-5.334949913443403,5.706470210649326,3.0852881663959284,12.752253263777058,14.524328181946105,0.14830341283332327,-0.6615766355737654,-0.05728664504082767,0.29791134623409554,29.46597647194806,56.221640183739915,62.06695075800397,0.0,-0.01571179636922846,-0.1037048435624922,-0.22055554297108032
102.02199999994363,sand,0.31650165154084753,10.238238895512879,-0.5625261445186887,-1.5605516174349554,0.2473609411827251,-4.236563541810542,-1.4240363405620682,-2.02424057103575,-3.8414098964943424,3.0307395118070963,15.770952597400479,1.9526326728098642,0.9247353695389161,-0.2706955974201062,-5.803384220822897,0.29636941455898663,14.570278164421946,17.617400522842388,27.188860194331582,0.0,-0.025991455696510648,-0.11066103554750324,-0.2178918998262708
102.04199999994358,sand,0.5278494358057851,9.755843501859236,-0.19193433860506914,-1.2864470452275425,-0.42361946533603095,-3.6584318652161905,-1.9474334844147956,-3.8709480040821154,-2.6495263073453934,2.9823603818495314,15.6259251970008,2.652350960172896,0.45748287444623253,-0.3852567964312497,-4.97469077676635,0.2924899347746853,14.885991252292909,27.717300334672824,29.828625862103998,0.0,-0.036686942472994845,-0.12315562555448134,-0.2126325363452237
102.06199999994354,sand,1.0324470499442664,10.281058688148999,0.8696520640482177,-1.2535651543711734,-0.8260999474725252,-3.1771898089883868,-2.578821062625677,-5.798909775415957,-1.155559760970835,3.2037707015289736,16.549408900436074,5.014292853315121,-0.15559597820169094,-0.10827090675319671,-2.7493546700593128,0.28671174160181,18.64018045823361,40.15894882404893,47.44960382608259,0.0,-0.046231682987078505,-0.13725746983123438,-0.20437500673965947
102.08199999994349,sand,1.4941519568397572,11.777831819009792,2.600424691186408,-1.3245300011526975,-1.0338379533865218,-2.697834608014648,-3.278068604420051,-7.7626580537482175,0.713176572059151,3.352295746325945,17.668194698290606,8.22037116481945,-0.6760318118789426,0.10748760676194623,-0.09697850293667469,0.279952976706238,25.904291353773385,54.928002569486246,64.49475913596962,0.0,-0.055186329256276985,-0.14837608697640295,-0.19397261575611963
102.10199999994344,sand,2.5829293149965564,13.711080266093546,4.808311285781288,-1.398136436323276,-1.4555489554379362,-2.3179041323740313,-3.86108647887467,-9.49458171838983,2.5991181352190242,3.6012946420754077,19.107540703483476,9.307882339424003,-0.47370250242029016,-0.5982604462073559,1.3327599215369865,0.2731809180855201,36.51754028232594,65.33940239608407,63.94735938411815,0.0,-0.06265550007028484,-0.15434520533955848,-0.18179792194100358
102.1219999999434,sand,3.827920766312827,15.311648002154055,6.854463867024492,-1.6141667413373408,-1.836586596129485,-1.984280364146275,-4.4242084286127294,-10.419061345073136,3.8274720496715506,3.639524260676979,19.61975042518938,10.220121875462674,-0.2186705042560935,-0.8665731356523905,2.1012290067600676,0.2669495210908254,45.969098210338935,66.54946632925557,65.50274083962381,0.0,-0.06815977076088817,-0.15785940780656949,-0.16792817992443815
102.14199999994335,sand,4.444990371923021,15.98363500956895,7.888853446822203,-1.7025144218413693,-2.1192543122200656,-1.6130570070232353,-4.823341987072364,-10.685665614871962,4.805720498182047,3.5601070704713855,19.65451085831106,11.305573831716044,-0.0930515506982012,-0.7208781677802086,2.418095952478964,0.26155478256987374,48.51034139733477,65.69244069364562,69.13681121047732,0.0,-0.07248635823550806,-0.16178961569065237,-0.15376470603578735
102.1619999999433,sand,4.463161823124513,15.9079917048913,8.154476725766203,-1.6979636398813358,-2.366778149884863,-1.235461551592062,-4.983580114429002,-10.455590143033,5.591079543249213,3.4909126966414594,19.547507002223107,12.34518618483955,0.062258027315982206,-0.3920333145525523,2.3172388583978285,0.2571024087890681,46.76076821330778,62.83243851902628,72.58120599995644,0.0,-0.0759835976228322,-0.16695028515609642,-0.1402026496340825
102.18199999994326,sand,4.274545879532835,15.46961959135094,8.188491822696777,-1.6664876694355657,-2.5749098623732705,-0.8691295224544953,-4.97535529332246,-10.045524591085282,6.284478919571534,3.4522050522407555,19.352219557400463,13.285944165332133,0.15107741398165156,-0.05448450779110479,2.123385605090432,0.25355530013804595,44.357859179289925,59.692715462239775,75.45890297118447,0.0,-0.07894414018966622,-0.17335634079762638,-0.12749431949828863
102.20199999994321,sand,4.074454124263346,14.942043133572259,8.185016619344932,-1.6417181190234307,-2.7495949640687964,-0.4016659959267558,-4.886380112948316,-9.590306936961367,6.9374818424033835,3.430460750973617,19.102789874456263,14.107989505373531,0.19648812798754148,0.22570020729320342,1.9070646342227344,0.25083733138928105,42.13792337253855,56.906244498386044,77.60836350196867,0.0,-0.08169420401928722,-0.18079923969385106,-0.11565869282620955
102.22199999994316,sand,3.904137138352059,14.41964082035804,8.185382163899753,-1.6086297478972473,-2.8729536865091694,0.10906068021744142,-4.770934963970536,-9.133997955088317,7.569408222579641,3.4056938326863744,18.80904560227696,14.802451644318332,0.2169776102637453,0.45589953121147786,1.7117511310756928,0.24886560855559317,40.194363403334876,54.64744452843216,78.98307975983282,0.0,-0.08460520654298477,-0.18902670445964526,-0.10466076444628734
102.24199999994312,sand,3.755353548773541,13.925354785304785,8.195256087444948,-1.5868429772274302,-2.970411752523291,0.4261760492506381,-4.662179055549415,-8.681272425419456,8.18535538309554,3.354999566988294,18.47621608366083,15.366597284580306,0.2155283303389127,0.6151492947626576,1.5117892721622963,0.24756114497557333,38.514162523699326,52.89782631566045,79.6437152163324,0.0,-0.08803916061120233,-0.19782742477550733,-0.09444064233654285
102.26199999994307,sand,3.611717799788975,13.455305483022986,8.203234006042894,-1.5700038320714844,-3.041181952883459,0.718565158711399,-4.536535931337841,-8.18598730491981,8.982688184682406,3.2569654399313777,18.084878939732484,15.830656032722114,0.22263713060661636,0.7655013066703856,1.2627912829211139,0.2468379506680098,36.99822361961703,50.74396970753906,79.77917118266201,0.0,-0.09240659583031444,-0.2070519209232829,-0.0849454781878344
102.28199999994303,sand,3.5046704552501415,13.025972033423926,8.215477737913808,-1.5418727096294278,-3.081417541167623,0.990975069512297,-4.427966644447307,-7.7159869712652025,9.548511031837263,3.1567598398530503,17.6577840723297,16.199779983559313,0.17659516963871894,0.8556580431490762,1.0678806019831928,0.24660420515193107,35.73794751953503,49.70836757142326,79.38347447687286,0.0,-0.09797598873864546,-0.2166255943773572,-0.07614416261589244
102.30199999994298,sand,3.434982143878759,12.560792866612742,8.409516413021201,-1.5037832285047044,-3.0942491970225383,1.2433736266362083,-4.344095034755132,-7.252417724150895,10.135797633799571,3.0596606914040354,17.232473531673364,16.456430682707094,0.10988263262718752,0.9024318548865659,0.857440062730422,0.24678154854167292,34.26337950088832,49.25832789422185,78.36871710619135,0.0,-0.10480306266616,-0.22636482054344056,-0.0678939326061902
102.32199999994293,sand,3.42459480202716,12.197247066276343,8.485211061031277,-1.471236988486857,-3.0890332397659064,1.4684531280736612,-4.274010866374726,-6.788003474677977,10.709431660526779,2.966906462549497,16.794599306857904,16.61139828858291,0.04402366230965598,0.913441396605961,0.7150929650733707,0.24729448572207713,33.59065996602965,49.11743318886558,77.02092717776696,0.0,-0.11284781251460753,-0.2360496371837501,-0.059930477460071775
102.34199999994289,sand,4.555112936402929,12.930168871518806,9.35769759901732,-1.1295616622247573,-3.0870133660331973,1.7547044055846506,-5.256282193008713,-10.8379092576286,8.215186863292194,3.9575855559105673,18.19429469802568,14.708165637430321,1.9638417345793733,-1.1521633508093732,1.8154167966408077,0.24910612992503875,39.52845337357787,42.95523497767492,29.640811695298563,60.137682703292946,-0.11507031332941868,-0.23850727714697761,-0.05080291745138104
102.36199999994284,sand,4.481186053248376,12.185182059418972,9.333459997427255,-1.3571503962159337,-3.1628414413231205,1.806301289171409,-4.701793590173136,-8.003986449011315,8.90619562430659,3.2185698004102243,16.61985862617349,14.713372623761808,2.2391046044881975,-0.8446594135825322,1.7696670692448813,0.2518326709184413,37.704547674256354,51.976002438640954,28.15122038331932,59.41803703615031,-0.11573053033220387,-0.23733337159878706,-0.0395657878545381
102.38199999994279,sand,4.509714462098044,11.688775814181898,9.240104688006321,-1.2832412176057233,-3.016662389922856,1.9858598397224316,-4.60211597104963,-7.602242124275236,8.876403306924448,2.9203311098055127,15.600855470403452,14.964238788597582,0.7592540170169433,0.467211852768588,-1.17201262702069,0.2547773274172776,36.379135828107636,33.4892453387606,60.84739494548377,0.0,-0.1169821533861057,-0.2363612919662122,-0.027857783965550872
102.40199999994275,sand,4.5930125515942075,11.3210309475607,9.15105364049213,-1.1519004122016698,-2.862602482849395,2.2132559217265344,-4.690870442541706,-8.344022844010984,8.70377588185472,2.7144259765954173,14.814052153367474,14.984619475418498,0.3918276151246356,0.5407195563650038,-1.197055953650027,0.25780737007728954,35.91693812275786,32.6840522472544,60.26593531133874,0.0,-0.11902124114457088,-0.2352022706222631,-0.01662401749414191
102.4219999999427,sand,4.659000046219663,11.008361055011637,9.134463950333885,-1.107486962495185,-2.7426415743490526,2.329999619526429,-4.6113422616312745,-7.851651698809353,8.992515091105014,2.4834094357881003,14.082072733663718,14.893015004482937,0.31145242431678694,0.5731397077373084,-1.2611028706815142,0.26080186016590134,35.732863103308006,33.343979879286344,59.291987115659225,0.0,-0.12206704394527293,-0.23386648110242345,-0.006216847976742402
102.44199999994265,sand,4.527484902403399,10.612084068592134,9.092902941588065,-1.270625245578535,-2.7125717786438166,2.300089734212918,-4.205199279745592,-5.50481751867625,9.997549805428683,2.033603426737988,13.117253315622785,14.935705791803189,1.6457856647185891,-0.45945115931462793,2.2060061008165435,0.26367130655513604,35.5305911127018,59.654130751602885,29.996166706004455,58.92348664174896,-0.12618215897135968,-0.23247633370804774,0.003243555455949204
102.4619999999426,sand,4.78958146633048,10.44001490045773,9.18181954663307,-1.1764709329751473,-2.5446718279251783,2.389489685057244,-4.292305142104786,-5.560587576623346,10.232016641749894,1.9482423451792221,12.584565371309186,14.593136658731675,0.31544178189957556,0.5975446578670278,-1.2149372895765984,0.2663873728059874,36.08947571113921,37.692910379039574,57.528077396040516,0.0,-0.13105336336200907,-0.2308795541223255,0.01175508131489112
102.48199999994256,sand,4.978391021843088,10.155834299164836,9.26503667431461,-1.184393297705907,-2.4118752479633745,2.4309829607703755,-4.284712100866326,-5.052210319696093,10.767758216594936,1.7859273379195955,11.949891360938786,14.279329435896987,0.1560402278810566,0.48446702578650047,-1.0636126075354448,0.26891643625936096,37.66524679985693,40.32933021426556,55.90486817133241,0.0,-0.13662580696933485,-0.22919343391896385,0.019384743307767637
102.50199999994251,sand,5.297556866128773,9.79281178882878,9.351563848632326,-1.0323312532767748,-2.1762850460836978,2.5600930582218666,-4.469228881223401,-5.838453714231595,10.952737009309685,1.7983521049914004,11.480753542686289,13.779583915474227,-0.252503332739701,0.2296522042333899,-0.8676729027800061,0.27125943869302627,40.16309206639848,42.39617628568791,53.29334985173835,0.0,-0.14256720240547657,-0.22751146234984093,0.02631496234019352
102.52199999994247,sand,5.480825440462803,9.289423318659734,9.347484479659258,-1.0381832452873794,-2.003277956930484,2.566471180406623,-4.4290182916903635,-5.303789347976194,11.517319033587682,1.732538988896956,10.916659546836076,13.348226730511499,-0.44942348619619604,0.06379949863029807,-0.6921783521182248,0.27342754704757566,41.81175417887126,45.400152646450124,51.37009645605781,0.0,-0.1485669751057386,-0.2259417012133419,0.03282482489469907
102.54199999994242,sand,5.543157395378,8.76089199038964,9.240687850938626,-1.2309173922896524,-1.911575560651106,2.4713564182466783,-4.29574678162653,-3.826134080992703,12.434575555869742,1.5190048285098372,10.24493528864636,12.983012998337426,-0.5163602830134529,-0.0007744038543270081,-0.486242021022061,0.2754474981163255,42.53109551806929,49.42665592930594,50.030953477585825,0.0,-0.15430425389850003,-0.22429250128714523,0.039260149632287196
102.56199999994237,sand,5.8126267340546365,8.42306520905983,9.081409041592876,-1.2415823453797834,-1.7152320926019056,2.4562597968945754,-4.3201088174005084,-3.479296318337666,12.997374628912102,1.4280278113695823,9.78982968779961,12.479198157901594,-0.6683181587952859,-0.17497826620957094,-0.3613885077819585,0.27727690218286016,42.870333774046124,52.856744848641306,47.791544646662466,0.0,-0.1597502275593173,-0.22268290641273988,0.04582384100159914
102.58199999994233,sand,6.185834877727427,8.228894528693614,8.931853021362608,-1.220939153813965,-1.5284383361490512,2.421165698580605,-4.3340526276579565,-3.1638519790723816,13.607703603037757,1.3214048396391727,9.450583318502888,11.88261088332018,-0.7557747897252763,-0.40268229113238635,-0.2740009666651395,0.2789645017834943,43.071287630854265,56.68719825181927,44.746509548451314,0.0,-0.16444541031534016,-0.2205279674313305,0.05285390580954591
102.60199999994228,sand,6.628176439475341,8.13930075809358,8.767294515131752,-1.2044196630053245,-1.343559949391759,2.369421916592458,-4.343343875335541,-2.871679471653155,14.219120461166096,1.1634960050955345,9.144011179725602,11.23732922836667,-0.8138645369078213,-0.6473364106939341,-0.1965502904654272,0.28054435428756863,43.341216739863384,60.626671223802724,41.44033718255743,0.0,-0.16807161615719665,-0.21752236808984676,0.06069536685204445
102.62199999994223,sand,7.106731340514638,8.15640651101427,8.50245987133547,-1.2009297928162597,-1.157915686248943,2.301553833178918,-4.346755239957183,-2.6085228325905083,14.798035521779866,0.9561683957052274,8.818556801378982,10.588947450603644,-0.8614523977252073,-0.890537184940991,-0.09143590139323411,0.28204955672758875,44.065695498169504,64.50167961240456,38.2807263522172,0.0,-0.17035647517900748,-0.2135296844058603,0.06961680278987745
102.64199999994219,sand,7.585225259281691,8.174711168282357,8.325509798828733,-1.1968097155071211,-0.9613174539134217,2.226166475645389,-4.343600884909046,-2.3597198884164543,15.316456818384962,0.6916648357507441,8.481998383519667,9.94438444025624,-0.8947282126620582,-1.1173334626237772,-0.06142382309938034,0.2835149677431499,43.9143884449435,68.12877338493394,35.23235980654374,0.0,-0.17110325447345637,-0.2084528552357639,0.07979119424358705
