time,terrain,torque_0,torque_1,torque_2,torque_3,torque_4,torque_5,torque_6,torque_7,torque_8,torque_9,torque_10,torque_11,accel_x,accel_y,accel_z,height,contact_0,contact_1,contact_2,contact_3,roll,pitch,yaw
200.04000000022705,mud,0.49757139585233756,8.57641036745644,-1.0713889675914476,-1.3218371709346588,-0.3592222320629863,-3.630164732685312,-1.5249482005270139,-2.3496957580768716,-3.331641234861637,2.738382922680686,13.43300166076867,1.1856576081832664,0.567735210057336,-0.17909907706011827,-6.640631382769311,0.2925974179340263,9.696051480644563,14.706511434007137,21.34690108044286,0.0,-0.0359713562860148,-0.12204819295872579,-0.21197380772549032
200.06000000022715,mud,0.5473523165667963,8.516881435547749,-0.43957869672473926,-1.272186989042802,-0.781463275420655,-3.1444839620169995,-1.7861529059027816,-3.495589909212701,-2.1993935245178324,2.676942721700783,13.876086503171607,4.074747826992738,-0.13794164325503291,0.620972293073001,-4.454294055429837,0.2860220359496871,11.764668475580478,23.721230924937633,46.19615462818273,0.0,-0.047918872689957086,-0.13640862548644245,-0.20523776683247807
200.08000000022724,mud,0.8532840826427203,10.540708326240408,1.8908123514834454,-1.2704753922899572,-0.9754054606483913,-2.6589925714419653,-2.3864156740721025,-6.409816591526308,0.26976061214676506,2.926432968659461,15.786527015669709,7.807308450639924,-0.9235548473104737,0.47913410974746073,-0.49355194483031856,0.27785129012651205,25.47491967175623,50.57210783842535,65.0036444718907,0.0,-0.060705150285939036,-0.14750887337474708,-0.19787118542611745
200.10000000022734,mud,2.142262757639413,12.882193462632223,5.893611339113711,-1.4745164413232792,-1.3610564503701648,-2.323805883985189,-2.759189712913578,-9.030639542468105,3.2526332827938873,3.4128250139087544,18.083969524268863,9.37603181960187,-1.353350501588949,-0.8503581996337101,2.897152341943338,0.26962737859792313,51.907718922747655,71.64687137326317,66.82290678574343,0.0,-0.0715058822308012,-0.1527549200808473,-0.18936052531975667
200.12000000022744,mud,3.4359932208297925,14.852673100485124,8.14922468579111,-1.7169863014722293,-1.7391085787020248,-2.000129482917024,-3.2937066240605173,-10.474328619838777,4.849896877367765,3.6361653372239044,19.35598968140817,10.401928491285888,-1.0396218991351422,-1.3272533281781032,3.7862765481772893,0.262538346602912,59.095673352932685,77.18776052491303,67.2582287733121,0.0,-0.07884726719602174,-0.15526577259337837,-0.17886008019021404
200.14000000022753,mud,4.352565470397024,16.384879148600987,8.87830440654485,-1.780710052450789,-2.06918013974774,-1.6335601233551582,-4.019156135167881,-11.404763060934519,6.040859300325746,3.5579023366324227,19.875428665996132,11.294501168082764,-0.43364981103473954,-1.2757367228788137,3.6842958645916153,0.25692413716466744,55.81844422919102,78.25835781075433,68.25643327136522,0.0,-0.08375091663256712,-0.157625261747253,-0.1666898381986403
200.16000000022763,mud,4.960032610992137,17.124177423594034,9.344445267337127,-1.7667597103561674,-2.3516725815533546,-1.264049256980766,-4.650171156496706,-11.529213554494802,6.981851164576819,3.4570355782820923,19.979820497869877,12.070787269586823,-0.03405750300774657,-1.076413758493179,3.4638697511018504,0.25276238844312116,54.23627374984751,75.43799683406182,69.42027389493572,0.0,-0.08673820919395046,-0.1607505713788496,-0.15342975688960617
200.18000000022772,mud,4.92648526763846,16.715998881205582,9.3185049531737,-1.8027073778789178,-2.6035654183035195,-0.9266873420691026,-4.8734792802413995,-10.45387351712152,6.72371863882358,3.4130402830788467,19.536573795013425,12.960024131942962,0.5007992027376116,-0.3432015784199974,2.427700730679432,0.2499156752947623,50.371806166901905,60.7210618132183,72.46369648726815,0.0,-0.08816787682790661,-0.1658625213927924,-0.1400028767882367
200.20000000022782,mud,3.9505618325928227,15.097765627115882,8.269956949111997,-1.7468929670356377,-2.7938517976805244,-0.4551194014775496,-4.475191425074925,-9.056324667808294,6.238749447446617,3.336308841164077,18.74272087659193,13.803691395831343,0.7217879655160885,0.4866224650108143,1.0867644702032695,0.24796169758351466,40.781684036846606,48.45251598658263,75.24591309981966,0.0,-0.08954541123414105,-0.17438809347623713,-0.12790952412436704
200.2200000002279,mud,3.0586884607329954,13.335240556758713,7.2308326883890555,-1.5599735327777648,-2.892342129768414,0.11098953279870372,-4.087555174288491,-8.39996653442787,6.699616564518693,3.263279435501202,18.178418287005666,14.42862193143231,0.45348078301409556,0.8667481264059178,0.53753281581764,0.24642220284824434,33.24335441273752,46.697999691863785,76.48844623653645,0.0,-0.09198904988859256,-0.18528770144836287,-0.11725303700390231
200.240000000228,mud,2.910457791346371,12.571513012436988,7.1179988667328296,-1.4749539468124717,-2.96030215884746,0.4518886171532297,-4.046302028000557,-8.189060639590558,7.753740829993773,3.2360307723206296,17.961748805651233,15.014554834485725,0.18367647400405407,0.8671645474899959,0.717955839985601,0.24511030562513278,32.18124319402267,49.51649756542789,77.48213866011669,0.0,-0.09543242828151773,-0.19632434266056714,-0.1070367425892402
200.2600000002281,mud,3.163433329178625,12.59220759081823,7.608273146312212,-1.4911220101239557,-3.0266074147855884,0.7348906920611451,-4.134001857953634,-7.96596989174726,9.000941702355764,3.1926462592783778,17.822125465075526,15.580123348860685,0.12536675060910665,0.8175401019793088,1.0059015937770002,0.2440902193317465,34.21849386983387,51.050940740370955,78.29625861600665,0.0,-0.09982727065204859,-0.20647770405964255,-0.09677504501053495
200.2800000002282,mud,3.4606106307888056,12.771089883469052,8.153144982314407,-1.531997603650146,-3.0753233112510276,0.9868349746953187,-4.205724858453394,-7.647542902288222,9.845367075415474,3.103022809109176,17.56882650080125,16.043018562985672,0.13028482014095447,0.7920181291816838,1.162377843649198,0.24347172283265558,36.19435811110179,51.40655693101693,78.43597799704904,0.0,-0.10529955434652938,-0.2160642620862592,-0.08660427990191562
200.3000000002283,mud,3.6096333705715455,12.756113887680682,8.48812621831364,-1.5546182490615954,-3.1008207663330287,1.2210597124877252,-4.201221041008065,-7.212497170340228,10.427414358862043,2.976814411097647,17.163627045045214,16.389571606772513,0.13233827623838784,0.8427430191221534,1.0792070573290073,0.2433048339406077,36.56391196102169,50.62827730141392,78.01766600869674,0.0,-0.1120348421266107,-0.2257073979216937,-0.07683415336065715
200.3200000002284,mud,3.6849509129713636,12.535346896456986,8.851082032915231,-1.4407195454378654,-3.0424351494019604,1.4899542358487579,-4.197581423181293,-8.223477837913446,10.339499649348157,2.9679589373403923,16.97412049120298,16.388400168610925,0.15154102309366815,0.5582047751399306,1.4790807158635875,0.24358065417112093,36.37705219765413,14.528592902722824,45.23564045284428,74.64529561755108,-0.1198836195209039,-0.23537826941954382,-0.0676872640461759
200.34000000022849,mud,4.087596574939831,12.703090121801566,9.29371477168245,-1.2995704350277726,-3.0170354119216016,1.7257659541400674,-4.378578540786901,-9.829266893898271,10.431475190460091,3.106262509874853,17.356696488353613,15.78524151446312,0.3030483778244132,-0.1159206056623581,1.7896737347214111,0.2444508080483624,38.27462489480974,16.000946894202375,0.0,8.94901994373611,-0.12701046022763346,-0.24254660677551867,-0.058667951924795486
200.36000000022858,mud,4.584721830457304,12.760229692235791,9.644741101714349,-1.2613759941074192,-3.0088723323502027,1.9008042873056663,-4.656783530440491,-10.136151511352654,10.962137842498525,3.167959774280226,17.470420241245172,15.20786158507113,0.4901424578513365,-0.49643438535615964,1.8184820268522002,0.24603528051419893,39.8395683072734,17.45246077957154,0.0,9.97545038391208,-0.1322013751782639,-0.24623723427402222,-0.04835120697882877
200.38000000022868,mud,5.006251991259545,12.566678804092373,9.794688509982677,-1.2606774463857024,-2.978191690765252,2.0442772040065993,-4.869975058795385,-9.972476233829775,10.972898355107116,3.177665291202256,17.17608561513618,14.741159978662958,0.6810944370722164,-0.5736100866907504,1.4390515291747838,0.24832060090614094,40.38947200208179,17.316971928446883,0.0,10.410013555024756,-0.13515088996692554,-0.24708487370301743,-0.03618306610771799
200.40000000022877,mud,5.275261017307263,12.167470007429154,9.76488483449582,-1.2634065098101976,-2.9093993791825534,2.170210754826911,-4.97866643621286,-9.776938357642518,10.481937594220442,3.1599218217203875,16.602476705487394,14.369628394933528,0.8082082981140393,-0.4757569292152126,0.8718002755923764,0.25115021138774557,40.027846421125616,17.27725601378593,0.0,10.567171001283034,-0.13611977447087406,-0.24603334286457368,-0.022408441662927107
200.42000000022887,mud,5.417612468313766,11.701953123393572,9.657140116594174,-1.2647332102415718,-2.8070415194352094,2.279229037490583,-5.042684362719719,-9.579707041019322,9.997943731193649,3.0876188675982323,15.938013316079413,14.058714609961024,0.8392441783347603,-0.3703052699690708,0.38218993230362197,0.2543059634742979,39.35405443526102,16.884136436399924,0.0,10.658674445186964,-0.13570353077245625,-0.243684852090233,-0.0075596593446047855
200.44000000022896,mud,5.561270572102348,11.285254776555634,9.566893052031856,-1.2547925512124654,-2.6929473178749017,2.3666699227630055,-5.122596276999743,-9.21861066338259,9.845720329986902,2.9597858872523117,15.24317361576064,13.836691774554257,0.7926524045394623,-0.3046072505655761,-0.0421617447531574,0.25759980308583946,38.990454115207136,23.929893179561365,33.441623098512295,51.73868154832631,-0.1344679408968298,-0.240279163595404,0.007978283037989226
200.46000000022906,mud,5.726009452862058,10.91554551301508,9.497024590331831,-1.269953421554886,-2.5581754011370768,2.428071949874637,-5.1220751372712545,-8.626677883801259,10.038292491849981,2.7847318112854813,14.518321922678734,13.692551793452722,0.6843026888848306,-0.22770050155062227,-0.21450629374170854,0.26088326080146623,38.9183195145341,21.096189281734514,34.531429655745946,51.02239287124022,-0.13284542932306803,-0.2361454857958518,0.023988985139432054
200.48000000022915,mud,5.922954663498826,10.616986433883046,9.459420257996847,-1.2785587900583077,-2.4114149455690734,2.471681655186069,-5.098542042897924,-8.089316084188006,10.261300229531882,2.577977976182681,13.84607409560622,13.513836692702483,0.5900423463162036,-0.19521059733812812,-0.3302984049334793,0.2640755895395237,39.159598373638644,18.532777836490098,35.97025889124106,50.23280441039973,-0.13115085350341515,-0.23145183829014482,0.04014067775443789
200.50000000022925,mud,5.9656119871474065,10.183421326901168,9.258894560181627,-1.3493075820195999,-2.357332890845518,2.4281267343206947,-4.851787178237752,-5.517633922147638,11.44474307232862,2.124449819676921,12.750847196486008,13.608296748916546,0.4281941243858187,0.21425533903624558,-1.0501544532764022,0.2670803362922743,38.122073765893994,43.662485902351094,52.45685250371661,0.0,-0.13002326004602432,-0.22684802491681733,0.056286513768190494
200.52000000022935,mud,5.846697159087919,9.625625842115134,8.884734998802736,-1.3718005476323658,-2.1394482914390993,2.455855232525237,-4.67981726018261,-4.756349610619768,11.279837094532962,1.630916613674191,11.591530017222976,13.695869444154793,0.2583536315263279,0.5335571839525379,-1.1860805516780035,0.2696737991692977,36.56456293338031,40.88166116576538,54.41877562496077,0.0,-0.13107232429362065,-0.2243507400374224,0.07177191442526566
200.54000000022944,mud,5.8651978490981165,9.274131573136163,8.669721898593096,-1.3612044015263092,-1.9212246625311638,2.4745805197937907,-4.6128014963680615,-4.396537278958142,11.587250396802109,1.2953192766087724,10.858534489959078,13.532314562857614,-0.004496489011651724,0.5133733946682973,-0.9979888322458583,0.2718071574096011,36.25828695668506,44.01167896137082,54.3624426138588,0.0,-0.13421275677776748,-0.22309032440019255,0.08567848672522292
200.56000000022954,mud,6.19954769503628,9.154997722634093,8.685666062132821,-1.290692389565047,-1.7127888890254779,2.4692895277735456,-4.623337859793446,-4.131043888790313,12.664014104263902,1.1315224113239397,10.491261955037956,13.121645370511153,-0.272971126288214,0.1457176544018511,-0.4993906940957639,0.27356870062666677,37.82688516101346,51.67947894552422,52.140305535686025,0.0,-0.13839056789511603,-0.22180506773972983,0.09822422892702175
200.58000000022963,mud,6.732438732179143,9.136763587492114,8.810842646253668,-1.2511198983887724,-1.5334320109207296,2.4325294468125422,-4.645718379950742,-3.8481771767359962,13.705030732451771,1.0148611526300562,10.267035153767377,12.534903425614246,-0.41177512609218425,-0.27314309672254294,-0.10516860051023515,0.2751463209414311,40.201265887684336,58.28976481076856,48.59952218883218,0.0,-0.14242037141983235,-0.21960196747548424,0.1102325228012225
200.60000000022973,mud,7.290919162754991,9.135360720552223,8.798099253527358,-1.2587547724303718,-1.3703538726806865,2.3688558294897746,-4.655870592831723,-3.544562836504338,14.373176302377903,0.8586634326768634,9.975350167673307,11.879693966010835,-0.4510258009198011,-0.5984304370942071,0.07940035930880407,0.27668656393410745,42.583685423637846,62.20991794321092,44.89610356110634,0.0,-0.14555328684341026,-0.21634603383441997,0.12239161845419519
200.62000000022982,mud,7.76188491308597,9.067674458979283,8.606356965208635,-1.2676575218970445,-1.196289466702476,2.296925049436439,-4.659676173829795,-3.2233879450642675,14.753122150437262,0.6517601346987996,9.569298881363594,11.207558183671363,-0.457201947781437,-0.8147010441163317,0.03701617676703385,0.2782523174500323,43.31954229501311,64.40597022908159,41.48231493418261,0.0,-0.14746508483910173,-0.2123127232360759,0.13502095683928675
200.64000000022992,mud,8.103230957998605,8.854895603565652,8.418050706816107,-1.2610207955274446,-1.0056873986927455,2.220767323748917,-4.653247158325005,-2.8517355305197816,15.0095846470096,0.4170675751389328,9.112185546325778,10.544993550592512,-0.47024072583124404,-0.9885182664597388,-0.05557655982082278,0.27982883254155283,43.41082869955043,66.06721276660355,38.43492345465781,0.0,-0.1480152235200154,-0.2076004009953496,0.14823495966863057
200.66000000023,mud,8.311343092765972,8.571476507760007,8.163162784109296,-1.2527444694974934,-0.8073409667499576,2.1372381450620885,-4.629785478981967,-2.347568217586365,15.241301008076062,0.18784210847502614,8.629016683150217,9.925144277750066,-0.45336380811913624,-1.125455586604278,-0.1526732499809904,0.2813794639663739,42.984557005692984,67.6749289451135,35.91556257830994,0.0,-0.14707263270474283,-0.20216098570409866,0.1620356533552165
200.6800000002301,mud,8.409959238752768,8.204233692144825,7.8388966429828795,-1.2377919430899016,-0.6081156676692321,2.0463994846249136,-4.529194742276688,-1.6466516741741568,15.42750757777871,0.03739621806597215,8.129504376624405,9.372284645221203,-0.3810246464767036,-1.2071820925638177,-0.26105733860358804,0.28286557525642814,42.11759649458762,68.8646902294742,34.04847080540113,0.0,-0.14440702356517213,-0.1959159728835365,0.17629242113857208
200.7000000002302,mud,8.385807511588176,7.746841411167953,7.453585933355132,-1.2405732899076098,-0.41222601965874783,1.9460626621574413,-4.3795552393984725,-0.7837309648019017,15.537963049094637,-0.05370602851562212,7.619785116646361,8.89131179567361,-0.2602905869390225,-1.2427378428788878,-0.39859065617421885,0.284242314081181,40.844391899242794,69.43500707798476,32.80723640526073,0.0,-0.13982317063993313,-0.18885449953135056,0.19071980105302416
200.7200000002303,mud,8.272327485283142,7.222193095191231,7.034749593518854,-1.25044572282515,-0.21835313267596906,1.8393373153231245,-4.207741199045024,0.16900824652964364,15.580187693563246,-0.10190003646412105,7.105504533686426,8.493291563176886,-0.12103425769604703,-1.23955167735578,-0.5381646269827591,0.2854552809390863,39.37762069088499,69.4975009303553,32.23770652105789,0.0,-0.13331000504713292,-0.18103050823870978,0.2049260203890269
200.7400000002304,mud,8.117882455887743,6.671406198366705,6.628319928213339,-1.2525412312963744,0.1250955933707172,1.7142868095191393,-4.039888803983131,1.159146459739278,15.581777198842907,-0.11442915169103562,6.60580697120591,8.18104265315796,0.0007479438567981634,-1.2012147714593833,-0.6253033784759547,0.28645070110634174,38.008499892755516,69.24976375447613,32.64842464159371,0.0,-0.12498129738420012,-0.17249149291666108,0.2184570475862934
200.7600000002305,mud,7.948303571348373,6.129260391341242,6.257241494943615,-1.2536668636272819,0.469652076009079,1.6140232756647075,-3.90981669468772,2.147067095057607,15.563068910935192,-0.10998484597970015,6.188135863703983,7.850572648970451,0.1704469928790749,-1.12412041384591,-0.6418217358459382,0.287201623117002,36.80188623536664,68.92461804803392,34.011262610635555,0.0,-0.11512722051420715,-0.16321290175371114,0.23080258725179614
200.7800000002306,mud,7.814504061115157,5.583616392132622,5.929749276340469,-1.2550419617995856,0.6669715653572923,1.499799672952637,-3.818026106725175,3.0911544592412694,15.56902611281121,-0.062145683872148916,5.704598347913293,7.655057276426089,0.2752937895182228,-1.114568067498609,-0.6545268303237072,0.287698576034013,35.950719925733104,68.8498516836065,34.84451569482511,0.0,-0.10400460835785501,-0.15324248699704832,0.24155406301474586
200.80000000023068,mud,7.711739597866189,5.052796980441817,5.656498369373353,-1.2563820481545513,0.8586396350256624,1.3860426890822488,-3.787854649513028,4.0178869728084,15.574137056433326,0.009115409231815752,5.220559465625989,7.522492732391991,0.3709852126661794,-1.1101286177706577,-0.6220960200519533,0.2879378022341241,35.42279787770954,68.80853172850604,35.944161680669005,0.0,-0.09184337329850395,-0.14257754409113566,0.2503824877040377
200.82000000023078,mud,7.641672915994221,4.511514544480444,5.430246741959937,-1.2570501757576824,1.041297344646455,1.2737117364625048,-3.817096236848076,4.921527318687981,15.566299410652004,0.10392096148525198,4.740587562520879,7.409183993825146,0.45879963343708985,-1.1265749512488998,-0.5686488499180338,0.2879326438467257,35.26323018853105,68.76120565489617,36.993318260886696,0.0,-0.0788289294038245,-0.13119422733493147,0.25702328597945917
200.84000000023087,mud,7.489729681246489,3.853072504524972,4.98070648544358,-1.0751900234894478,2.3992029659468717,2.7761315496352985,-4.0080952674045625,5.583551720429048,15.628647824333967,0.09594214848172286,3.986761350511013,7.330563472782524,0.001387791376876537,-0.7347794645268313,0.3651344693802048,0.28775471999589775,32.15674261183374,15.561983274043655,69.94985123411382,39.3755959620037,-0.06530917514347255,-0.11964372193353895,0.26140094193165475
200.86000000023097,mud,6.888788109133615,2.98510935957057,3.825974760443549,-1.0380290442099724,2.982327965575477,5.3654471239717605,-4.265601561387443,5.981712548178923,15.447183620033702,-0.0974869910150083,2.824821552143341,7.005430957278636,-1.416491688387747,-0.062622842172542,1.670456139449854,0.2878234718260618,24.695880011045244,41.968126637449295,69.17598327084286,40.934845565703036,-0.05214838198074072,-0.1103589939569734,0.26410712605615555
200.88000000023106,mud,5.847519573110355,1.8613230384129853,2.7823423558531006,-0.8829166918831959,3.821443252853678,6.316040974465718,-4.217903033018774,6.619588363565628,14.885508166365677,-0.08728953797330391,1.6755216062365215,6.524368456580012,-1.6449664110136348,0.22878281851122875,1.2620589257205153,0.28851176755544866,17.130851061831784,46.209247770442836,65.17392555248134,41.469920828446426,-0.03943863576882414,-0.10474955264869622,0.2659170567527661
200.90000000023116,mud,4.54746812188295,0.9318862807498529,1.6950818015041402,-0.6639349885006185,4.862839029211376,6.52013963427657,-4.011846363220746,7.464064933654935,14.331275621106718,0.0703169331783933,0.5387233723233903,6.1559710854651195,-1.3736514082985392,0.4657965265540745,0.43839930200582805,0.2896633172807716,9.332061797564355,44.12106151998881,61.0738113443121,42.891545078503846,-0.026800963937067466,-0.10211884306208763,0.26722956904275624
200.92000000023125,mud,3.2822230424379986,0.0803785682732513,0.8187253597870419,-0.43096438883388133,5.953524005833572,6.621787461842725,-3.7721071472292205,8.445883003260116,13.932743176995299,0.26141209474011723,-0.6078251815200404,5.933431436457218,-1.0596515978302068,0.6722050693031367,-0.12784093086514783,0.29097262030646204,3.234720605559029,41.40453123633454,58.04968810181877,45.319625864301706,-0.014315302338898484,-0.10137657772457702,0.26826242319245625
200.94000000023135,mud,2.5975903454328604,-0.4145266363254192,0.40413882871121554,-0.2935423372665893,7.081942117143909,6.675140956209303,-3.5714313038721914,9.438722784534624,13.71618591970794,0.45562806561664815,-1.7638146006319384,5.8045730830500135,-0.7293586576531675,0.7578679701850847,-0.336706661834108,0.2922291783301777,1.0692208136916836,38.141678135313875,56.55827872931226,48.24121265391906,-0.0023891257456672634,-0.10173575628119137,0.2690248966198331
200.96000000023145,mud,2.242356114983076,-0.6829838602188443,0.22766678450390287,-0.3139626525691055,8.225281402762967,6.712505171941734,-3.462569186648949,10.382623123544382,13.652687236848273,0.6098979402307554,-2.930397061151752,5.722211210520312,-0.4162579203673316,0.7843436553737984,-0.4082091493065645,0.2933484538629742,34.95479821240753,56.34820090954897,51.262885176397305,0.0,0.008484070419094044,-0.10278079868676913,0.2693170751401987
200.98000000023154,mud,2.092304243971469,-0.9575419088494881,0.172080632088486,-0.4263725299352865,9.366037461147053,6.78933759551683,-3.4033994476233453,11.30527506052361,13.668308454371974,0.7502123747317576,-4.090002682480624,5.655362044998206,-0.16424196895782825,0.749852025303397,-0.3682268904720796,0.2943072706022301,32.18589793338097,56.751996825531634,54.018532578189514,0.0,0.01812807534057838,-0.10411576903639,0.2690214412245256
201.00000000023164,mud,1.9836087964828493,-1.2160800799389992,0.1394853517983562,-0.5669768543459586,10.523411192119305,6.8051116337564626,-3.3470675624818713,12.221269011040473,13.717760847214427,0.9151386100449994,-5.247888723644372,5.61328041324621,0.15735069993092424,0.6678454490006904,-0.43173541570347684,0.29511296329866715,28.43673394029198,57.490359575449695,56.08521370963184,0.0,0.026586900929070883,-0.10539010134504163,0.2680948178153252
201.02000000023173,mud,1.624912478710458,0.36812447988715347,-4.1923342827336345,-0.7163093981647365,10.190635175534734,-0.4311501992917428,-2.7025086994889658,15.70203204188681,2.016467910953555,1.2968888817485027,-2.7470025164190224,-3.4663495774196385,0.6162511440584525,0.3889766779785874,-5.228420155240246,0.2939165957348433,15.705496813986116,29.204971206936545,24.174953654678994,0.0,0.03692708202335358,-0.11302687181164929,0.26553391991896913
201.04000000023183,mud,1.402188881065889,-0.35214672512630707,-3.6551632914068612,-0.7603841279740007,9.334310769150289,-0.4541906624183216,-2.795511978369783,15.539208975021927,2.6012784323740767,1.8806476023529872,-3.429110579002534,-2.815348206417097,0.6502116778726742,0.2358172245100861,-5.365783604942379,0.2905184349882966,12.89252920333674,29.594652104441902,22.657141527177874,0.0,0.04762534683034334,-0.12477044065132072,0.2602704484734136
201.06000000023192,mud,1.303171483972298,-0.8227622865540365,-3.1708499402196653,-0.8457663692277334,9.031802340038269,-0.004139115844957075,-2.856193110694992,15.56104173010018,4.329484077336302,2.2307633717580586,-4.47642691991639,-1.6320855832281627,0.10438863311644414,-0.18727466521845862,-4.005650189111475,0.28503942538946,13.8871162815888,42.41648609894742,30.846703377329185,0.0,0.058158507558779216,-0.13837700328522573,0.25251694886466636
201.08000000023202,mud,1.3002049256405084,-1.0695738540356503,-2.689884595311055,-1.3530556053523846,10.380344843696559,1.6963914368861328,-3.1326454634274254,16.562052616778047,7.124926588584966,2.778003760350356,-6.612480524628355,0.3734146615971081,-0.5564824710188564,-0.2866966998533564,-1.1953007752714082,0.27809322749217746,22.21913898616061,58.55154662020332,48.616875351564495,0.0,0.06827346048716598,-0.14987530703118282,0.24291502181605418
201.10000000023211,mud,1.4638219146647906,-1.4004070553979888,-2.31398353820839,-2.4548843825232334,12.702424906365225,4.542185566723957,-3.3614307078726915,18.198839123953032,9.045851993947295,3.3807927311660597,-8.678180002162915,2.806952778938321,-0.7793127431893891,0.3945675608244424,1.4637129986734745,0.2707696601885041,38.657207469983994,64.67440737412178,65.45932244652506,0.0,0.07716536603916854,-0.15652408755673952,0.23179129818010377
201.1200000002322,mud,1.6535029272010766,-1.7636434147149478,-1.9793778937732753,-3.7064594847649195,14.576887294497523,7.097561060203491,-3.539137478148511,19.349059885404237,10.245027887291513,3.890619758964675,-10.084437971444656,4.594028895420841,-0.7151432871459922,0.9162720502935325,2.913032263185216,0.2640645447646407,51.25571501782243,66.67134390216957,72.63173709442798,0.0,0.0839369423448655,-0.15994043578232528,0.21924034259607483
201.1400000002323,mud,1.7577507982674831,-2.0837213750949237,-1.6256948237196207,-4.616976846820153,15.939966127904881,8.293716469048732,-3.5108436007187684,19.840559706183583,11.182612791187225,4.467881689631104,-10.996037020106519,5.796299906250956,-0.3910025451632881,0.9967315460039452,3.1857815258471844,0.25850498419987583,52.763848726063244,67.96577778789376,73.9481069683229,0.0,0.08869695711782985,-0.162844512694457,0.20569202625771182
201.1600000002324,mud,1.7717055969007864,-2.3770158338806455,-1.267559696912647,-5.109811434286138,16.482639394028876,8.791292721535703,-3.4281522682794665,19.825920060181637,11.932337029942364,4.920667511690351,-10.842932859040994,6.469511195448028,0.06296549789874634,0.7541757465712755,2.794479807464691,0.25418002845580046,51.46332567186486,68.8774797273822,68.59561338805045,0.0,0.09191786469838224,-0.16677445169961028,0.1916832349687947
201.1800000002325,mud,1.7648990560277664,-2.616262671747039,-0.9146426018422726,-4.91877885662093,15.900506454614973,8.62081266023548,-3.387629497985548,19.313454358951773,12.690241445983272,4.946818400477451,-9.944285044302996,6.5248905934692845,0.4073294749101165,0.19688794481764127,1.9406613811018623,0.2509142076414869,46.996642548960864,71.07833895262894,58.601562258077884,0.0,0.09408252146980527,-0.17319769126533172,0.17809997753217402
201.2000000002326,mud,1.6860945198216233,-2.7776756596656114,-0.44484587013361754,-4.141406086660804,14.609330602400796,7.884453518652943,-3.347651904158254,18.710186359441927,13.57028984929543,4.682587682140429,-9.067580669707583,6.711507117066482,0.4262968810944297,-0.38736171277641507,1.2340530219997816,0.24838427182562495,39.88040341272802,74.62679953401519,52.38538027457704,0.0,0.0962214031998136,-0.18240510007802108,0.16567954156293535
201.2200000002327,mud,1.5738834649168552,-2.87242820689527,0.11347808426886175,-3.5309773219769687,13.46170583406992,7.361694479340637,-3.3411417823970067,18.395437135191095,14.449263984836096,4.4759604381737965,-8.557941673292493,7.370251672295776,0.2611459296998999,-0.7234837926872516,1.0551092417852448,0.24634090730905464,35.30229132070685,77.572075526998,51.28809943685408,0.0,0.0990024001297431,-0.19284818191009354,0.15423197412692988
201.24000000023278,mud,1.530570844712936,-2.95914103588243,0.4372564679924169,-3.42457910127881,12.969646895175721,7.428143762391919,-3.324802068473571,18.28666162141228,15.161978603709878,4.4384607009554395,-8.254981925045762,8.274382057337885,0.1542371093478421,-0.7960436741654159,1.173082067798107,0.24472185088558707,34.71243334714845,78.95937699688285,52.20471912340062,0.0,0.10261663318515116,-0.20301812239392636,0.1431893345603938
201.26000000023288,mud,1.5514567971999917,-3.037692346020185,0.716466366447484,-3.580706758846247,12.89367637405482,7.80719251546075,-3.2491524673991834,18.12151344794954,15.70650863894211,4.46315869195524,-7.914826140327893,9.288222769952064,0.17332195142940807,-0.821216942626923,1.2347169451253195,0.24356574610740045,35.78372900538417,79.35920377875091,51.87929441436215,0.0,0.10720844566110771,-0.21259840356194212,0.13229843820222514
201.28000000023297,mud,1.5671121369770926,-3.088047567938898,0.9748137583668006,-3.7468423115394014,12.861130651654074,8.154917640171753,-3.1289367212174097,17.804428024911083,16.112634513041918,4.460422361835544,-7.527814474287,10.033710084547224,0.1680766316748499,-0.8368681447216295,1.2303604688124443,0.24289852978149346,36.52612517959786,79.0329244620557,51.55187330851298,0.0,0.11303754325210852,-0.2220722777458025,0.12170530720443799
201.30000000023307,mud,1.5638225945712771,-3.110642937782396,1.2165445082985227,-3.8092767395100284,12.666640137957208,8.360932644792465,-2.987489115473105,17.36437063309047,16.398984700602306,4.408294283680608,-7.067624630000491,10.596036707962671,0.1432210782896601,-0.8965183674299941,1.0602886149033957,0.24270774557850394,36.02094483652639,78.20377840490076,50.74830629969094,0.0,0.12023806173844324,-0.2318583583450579,0.11157197410762107
201.32000000023316,mud,1.381274904423074,-3.0385834096917623,1.5096572644260653,-3.991858389303824,12.58678146513905,8.747355564756472,-3.109860867679367,17.531442547420745,16.058220218305387,4.484973660847681,-9.132032128635768,10.155730025774314,0.2155289342668816,-0.2995753653793928,1.7535896034338134,0.2430278404070075,36.86034827869971,72.52110257936856,5.545164128697475,7.898325269880532,0.1278943031835141,-0.24091700625957038,0.10212059924528707
201.34000000023326,mud,1.2927914966683085,-3.0413796007290532,1.725403712652657,-4.431229337464837,12.729195677753243,9.233779353753981,-3.2181269267825674,17.882953483829144,15.417851502614095,4.7393456532051745,-10.187135129559884,10.572419359401293,0.4183099242417613,0.3389755558560575,1.9166933101558885,0.2440400976659716,38.67717164674789,65.32533479436107,0.0,18.31643208864916,0.13414438706879084,-0.2467142770895103,0.09233579159578736
201.36000000023336,mud,1.2720700528051792,-3.0336661724517526,1.895227628755296,-4.913321714881274,12.70510691866883,9.565996276163467,-3.2564555907565436,17.825424384972095,14.91959313999506,5.0231151879423415,-10.248531053987573,10.919292803225547,0.6045568622263073,0.5889355390314779,1.7815323752658125,0.2458053026185481,39.9989894876229,61.01682799663996,0.0,18.787556181515292,0.13821745543812008,-0.24918006377879187,0.0809670531143173
201.38000000023345,mud,1.27550448855681,-2.9932919043039323,2.040050352240611,-5.268203186405728,12.44090928054469,9.667427963544288,-3.256130139717746,17.39126216265105,14.544164800275531,5.200547451212028,-10.068525102008852,10.68312163381531,0.7684810055210565,0.5707919603715277,1.3048874465284177,0.24825324917005911,40.21851046962879,57.675535591947,0.0,18.536626932092755,0.14006434419486205,-0.249177191309199,0.06782404431717017
201.40000000023355,mud,1.2734752517185914,-2.9157877988019543,2.168926430942647,-5.471441859973707,12.010147019725634,9.61570468795187,-3.2344127014115416,16.759695288620414,14.245768970862898,5.272218454866143,-9.89571058486043,10.116624652696132,0.8596908284723261,0.4414103890025149,0.7375754939512768,0.25119343258750426,39.68749434841777,55.08688334068444,0.0,18.377126943677254,0.14012311121313806,-0.24754552182576456,0.053323659411436575
201.42000000023364,mud,1.2705900787381428,-2.809348726219908,2.279109530669995,-5.592495818769522,11.556412099589679,9.5229908789717,-3.171143586586995,16.087792639651312,13.996470193421729,5.299234268807102,-9.682295027261468,9.720135175770057,0.8573506903094755,0.34457503070042844,0.3029228769674683,0.25440944538125465,39.09399003090761,53.16755539338176,0.0,17.617051339348823,0.1389788253866439,-0.24472671943573027,0.03797650694997813
201.44000000023374,mud,1.2702361597430292,-2.698290670562031,2.362458940538743,-5.727971697982053,11.163075357289161,9.459702784780806,-3.0288692707585243,15.378702576121837,13.83119647336828,5.360709612017121,-9.248651760120106,9.686668718200957,0.7904499374331381,0.2795729444198912,-0.0794805752344172,0.2577311913411176,38.85669128254983,52.09713435031311,24.101490439696498,32.51499183613578,0.1371983832432047,-0.24090469380179227,0.022081169716103254
201.46000000023383,mud,1.280021434216348,-2.561108872145363,2.4258933547610013,-5.897269160451401,10.821403922375033,9.414080863993277,-2.84125368568133,14.654319943836668,13.705552802822538,5.348257108320664,-8.659666172085814,9.89921333622362,0.6854183774493822,0.2088471055815768,-0.23210026326785377,0.26102308371053307,38.907869478731165,51.40355872308816,21.256203122899883,33.744989699684666,0.13521605228724884,-0.23643923059938754,0.005828664651316656
201.48000000023393,mud,1.2869306517276038,-2.4148057389202915,2.469600469798454,-6.095727243414965,10.536834903398555,9.390403059079208,-2.6233009904665403,13.975097151739838,13.53264033465216,5.317854918893244,-8.131491772723072,10.125683960135166,0.5901970226235491,0.18026194720863226,-0.34225562515235425,0.26421682337885916,39.209020600507294,50.57971367706669,18.688580646905226,35.2536264401994,0.13328246048509726,-0.23147421693848677,-0.010473845955406319
201.50000000023402,mud,1.3717816564249454,-2.358627159915864,2.426362636796071,-6.039688739274962,10.02587854307955,9.101754450689677,-2.0626480363722894,12.690798158388413,13.75005664687253,5.0229653633765645,-5.308603300730502,11.409503383323084,0.39985662610966116,-0.3179598707565262,-1.0535867144049518,0.2671769570050685,37.59855790567526,53.69957663298387,42.69094057793968,0.0,0.13244473276310323,-0.2271105787240845,-0.026706514800364116
201.52000000023412,mud,1.3843800056321838,-2.133926272323997,2.4587667760550147,-5.905616851041283,9.493134760909635,8.751735672164166,-1.5708066508387257,11.599737549976327,13.79908986301405,4.8645976223081995,-4.70754201138919,11.091068477922331,0.2439233242137025,-0.6302627653837628,-1.2156377258480056,0.26969563297861116,36.144540990934196,55.28197853407056,39.97205816693039,0.0,0.13411722196442424,-0.22494971214198,-0.04198979149393776
201.54000000023422,mud,1.3576298879507533,-1.9139043769123107,2.4775896626187324,-5.9854983294508814,9.184208641572154,8.581923854002303,-1.2875203941833315,10.936861779099779,13.60489579000223,4.760173216131256,-4.374519744074391,11.638401358304677,-0.05367710140294842,-0.5209172803771807,-0.9239439346743397,0.27174863199061167,36.227186484394366,54.85495797813473,44.66575941176802,0.0,0.13781267966722408,-0.2238485788721545,-0.055567538579967594
201.5600000002343,mud,1.284581400276107,-1.7123132402004462,2.469930295042367,-6.365500840369595,9.098267084265403,8.639114156611077,-1.1368299482303823,10.61469170471525,13.160106841023056,4.794269410490637,-4.107739151752821,12.788529439959182,-0.3187383065049626,-0.12247758717864853,-0.40906314467218247,0.27345903415496436,38.105009474628574,52.281542380146185,52.5700675152984,0.0,0.14237584424129524,-0.2225227642207728,-0.06787070361127265
201.5800000002344,mud,1.252815531784768,-1.5391103672531963,2.430306698800041,-6.908499060985959,9.083467964224024,8.768797438692264,-1.0089080605821172,10.38633544283293,12.557342830636227,4.846425265964395,-3.810491461404797,13.781258390814063,-0.44568059857005266,0.2783530670286878,-0.05812733176749085,0.27501857711251987,40.49126514698351,48.62124098865174,58.67215705027403,0.0,0.1466751427533151,-0.2202318043259755,-0.07977084674266119
201.6000000002345,mud,1.2628156998333129,-1.3773544191118159,2.3661715368119216,-7.46366629942362,9.07208923366207,8.724308294714644,-0.8504530690502878,10.067141271184717,11.89913500733543,4.861295048980568,-3.495106149753047,14.385173388181741,-0.48292607617187006,0.5775961787425701,0.08194586264004398,0.27655837642505143,42.705481030440325,44.94914081910049,62.099126391579176,0.0,0.15000167149969776,-0.21696581697168288,-0.09190528021730167
201.6200000002346,mud,1.2697218992298993,-1.2013121670577558,2.2954196153538504,-7.920453746559341,8.984903373790658,8.513911708190607,-0.6418973976565827,9.640203719859352,11.227065874015775,4.86539840907262,-3.166244135722833,14.735849801983036,-0.4974277545232588,0.7806127574068337,0.018345250821337707,0.27812436496800275,43.26790115395943,41.579975895711385,64.10265631981159,0.0,0.15208476802093346,-0.21301570308620033,-0.10454098985644243
201.6400000002347,mud,1.2603487791879837,-1.0085423387648822,2.2204248559446054,-8.250069379814008,8.764204748622083,8.312074245164093,-0.40747675180589016,9.173825202814694,10.56758852999469,4.857838509649425,-2.791159599833918,14.997114261577053,-0.5226467237994966,0.9521855444557623,-0.07265890284393745,0.2796940793850953,43.28525953171307,38.57272065772271,65.80476241284704,0.0,0.152806080370063,-0.20844214223065513,-0.11777951533036048
201.6600000002348,mud,1.2454973189425755,-0.8088972096614229,2.1380966068286513,-8.459944287681985,8.48161379287341,8.05450108450124,-0.18807708555341596,8.690297667335564,9.953982768421596,4.822042257960474,-2.282784831964922,15.243371548042202,-0.515062363419514,1.0873167046783387,-0.1580362811776066,0.28123167421482276,42.87349750416561,36.09256965143292,67.49054844643949,0.0,0.1520217855876672,-0.20315742819177607,-0.13163337730384322
201.68000000023488,mud,1.2361329329520805,-0.6098625678786114,2.0464204765465697,-8.561398001133991,8.118891881622341,7.73634711865684,-0.04343132133033456,8.194719910316683,9.405232328227518,4.7096205244083365,-1.5749258130139019,15.44280898015665,-0.4438649055459774,1.1764135444547437,-0.25869724779479325,0.28270263161170417,42.059226840522015,34.22928646979125,68.75528374688497,0.0,0.14946963050623377,-0.19707096060012305,-0.1459784981848448
201.70000000023498,mud,1.24171016469271,-0.4147047272287241,1.945461466604824,-8.540372032156975,7.669723759317341,7.358958967948853,0.0479507715288201,7.685658388339402,8.926950119863747,4.554941082232098,-0.7041929664571862,15.562013877645498,-0.3221345071963015,1.2167055144282914,-0.3904724896547086,0.2840653391745731,40.84030689778739,32.981604199731464,69.36985852448615,0.0,0.144999482753489,-0.19018893617835703,-0.1605268397963763
201.72000000023507,mud,1.253173638149966,-0.22145278685985043,1.8382005493012175,-8.432128921591215,7.15315367954572,6.948418641912394,0.09723620014565093,7.169661885746869,8.528008309778446,4.379837317173832,0.2530860546446725,15.610248305883498,-0.18219183302878925,1.2189971490210798,-0.5262484469580269,0.2852676071181735,39.42999304933229,32.38413870584198,69.46749144978654,0.0,0.13861232405424706,-0.18258550716070618,-0.17487657336094534
201.74000000023517,mud,1.2555675815471803,0.12168566845553383,1.7128791123804792,-8.283037366190266,6.608950708168074,6.5487233613907385,0.11128074106517627,6.668058595161858,8.211065333743726,4.209790383161747,1.2441564834252925,15.617016803065882,-0.06089292246216962,1.184792214640948,-0.6092295770739081,0.28625715999303203,38.10592335317935,32.77556847089424,69.25710010530153,0.0,0.13042622589959632,-0.17432383262727189,-0.18856226711576385
201.76000000023527,mud,1.2568834269266165,0.4660968626533192,1.6124999286709993,-8.117556845755391,6.0709408834698735,6.1813133641121345,0.10776794902737674,6.2485913200506,7.87511692551583,4.077206249351928,2.230376542713917,15.60408103949024,0.1077065759726527,1.1165268676155884,-0.6266563409685233,0.2870081272059648,36.92498134310498,34.053378908397335,68.98262026855842,0.0,0.12072994655304137,-0.16538555739476807,-0.201064488397096
201.78000000023536,mud,1.25836408287825,0.6636504674882437,1.4983663076037876,-7.985309988868309,5.527367569152403,5.854711043185761,0.06025905238672025,5.764719903857985,7.675601497636065,3.982662760382555,3.173176841812832,15.616039776029895,0.20910960358145866,1.111226993791259,-0.6385684254048338,0.2875112134936663,36.080207691172255,34.844619655325246,68.95512480789469,0.0,0.10977522116842504,-0.155819669275086,-0.21197167151414884
201.80000000023546,mud,1.2597750783893722,0.855474325273438,1.384725666851168,-7.881700206358339,4.997203937610465,5.579563179222923,-0.0114150840845052,5.282469981934642,7.540265472915834,3.949098298080288,4.099932737466723,15.62764039658058,0.3013484393951066,1.1096474325433932,-0.6062716487748528,0.28776292385595975,35.53835174872074,35.90883984932335,68.96028772884496,0.0,0.09778857755738893,-0.14561892699948312,-0.22095377338991146
201.82000000023555,mud,1.2605146515079104,1.0381837052842537,1.2725028551235145,-7.809459347526447,4.457034689029639,5.348511368285709,-0.10682397898073848,4.805875938524325,7.4259112885773595,3.9746462616093807,5.00557280356079,15.626998177544124,0.38607175917621306,1.1276924777631407,-0.5538352639719358,0.28777652166500917,35.33803455869963,36.93226155969195,68.9617012152308,0.0,0.08495341513136688,-0.13475483197526356,-0.2277478894318069
201.84000000023565,mud,1.1220756522694653,2.2246887448491424,2.280394287369949,-7.702336471191895,3.798518499888564,5.018396747234315,-0.16108194745992405,4.139137682266261,7.3556953666737535,4.112672704464759,5.740217326394796,15.674822375624068,0.22825459150408411,0.8939147256281894,0.02440711416316601,0.28759583043289794,9.318870377438179,33.25746136478118,39.043512898711526,69.92086813205569,0.0714749232853729,-0.12351899389811527,-0.2322392573495667
201.86000000023574,mud,1.0846378987540588,3.0237322278266667,4.795862116425631,-7.227529382181242,2.946504640239455,4.0319752042782415,-0.007806900561362962,3.01182068244786,7.129789971572428,4.369113073699524,6.1599467668526415,15.586058437109159,-1.1514689966913663,0.15133828290577322,1.5844948934832275,0.2875384487960003,37.43190024402463,26.925325896252108,41.250548619811326,69.92063004701544,0.05811661207924521,-0.11391703703746661,-0.2349074064835285
201.88000000023584,mud,0.9817660286435392,3.7874758205620687,6.127754646915435,-6.261089143573631,1.88502967784459,2.9426478829551432,0.03850058529530964,1.8446807560792258,6.659239916653945,4.392944885071116,6.747095663014731,15.060305762766518,-1.6166000550828925,-0.22747667630901935,1.4122444475945781,0.28806646432957084,45.25825892490475,19.107745252745325,41.816997830384146,66.19011031730663,0.04532005417749094,-0.10785005793212059,-0.23656471330825854
201.90000000023593,mud,0.791846772867282,4.808402450905744,6.410698086379328,-4.981726678649601,0.9153683607101879,1.8956935854504937,-0.09377221717724835,0.6820037001544349,6.274589905901467,4.215475810020011,7.5423886985219895,14.48592193829002,-1.3819382801551647,-0.45734003396439593,0.6223529448762325,0.28911575446181426,43.73366559506677,11.413218688830566,43.14929288140693,61.99842313501403,0.03266048676666735,-0.10493860084729914,-0.2376907349715173
201.92000000023603,mud,0.5498303053736315,5.8895420384657635,6.529039745865173,-3.619533481245443,0.09012659722200969,0.9578236317613196,-0.29785614354375023,-0.4811462850667423,6.033955235244626,3.9618075035005447,8.499707673627881,14.035017854047595,-1.069241310294768,-0.6778793617255915,-0.029320930920662614,0.29039118338526176,41.17705389400563,4.5020748527871355,45.46988982102801,58.58449464498949,0.020097539710613604,-0.10411958517643463,-0.23852519532810257
201.94000000023613,mud,0.36657519202473965,7.006247184647799,6.612092809219609,-2.7647085432841436,-0.42277970224157446,0.45235556150272593,-0.5279698343458695,-1.6475654747840347,5.899801520063046,3.7188558008240507,9.494480481407136,13.768923920401157,-0.7420765576602206,-0.7878496067506231,-0.30071011877732545,0.29165205108864084,38.188843863698104,1.4690826580246252,48.361375109654524,56.70226335653388,0.007922237812166666,-0.10448354704533146,-0.23912504584292069
201.96000000023622,mud,0.370065273551634,8.145729502948349,6.646369332372252,-2.358332872901476,-0.7211149999357223,0.2416100392883982,-0.6919580491672133,-2.8221373148706883,5.811676299359286,3.595819282790325,10.438122872998083,13.671910546264655,-0.42314290689707224,-0.8165560406994053,-0.4209623267760498,0.2927921577934505,34.95261055708592,51.339869926529545,56.24804808613315,0.0,-0.003276656064056183,-0.10558208154053014,-0.23929985869430428
201.98000000023632,mud,0.46149775116097064,9.278557246931488,6.732928955363106,-2.147555811933189,-0.9664135232506204,0.182165142538107,-0.8491881307558327,-3.992111037725584,5.7502496473335,3.5177840240119664,11.358687758350072,13.672867382170688,-0.17260799968510993,-0.778431492347126,-0.3680919325682136,0.2937757238720593,32.24280542123536,54.1495501589668,56.58470020676626,0.0,-0.013255258539757373,-0.10700721168402381,-0.23891344642142054
202.0000000002364,mud,0.6038459105193292,10.431706405621801,6.762510195613164,-2.030388291887472,-1.2236315853879582,0.14902934282545321,-1.0150004799516323,-5.1486658547603525,5.703267751375164,3.460954816590365,12.27244287559291,13.712795420578079,0.13429695924901658,-0.6896040000790894,-0.422390950256362,0.29460705857450675,28.60286893491361,56.256998561392855,57.27749402893096,0.0,-0.022002653271462294,-0.10840653042564964,-0.23790645696078166
202.0200000002365,mud,0.747524427617391,10.14048132651806,-0.4828326528420668,-1.6636465121792732,0.35925841567984573,-4.183939947835432,-1.3709304262821251,-2.6862756650984885,-3.4164453659706915,2.785314274607459,15.762561550103506,2.033154715643219,0.6250490395704756,-0.3734120972547546,-5.232182180540217,0.2934393108798782,15.599872990436673,24.194533470717484,29.262240735430048,0.0,-0.03254003076102441,-0.11618793321141299,-0.23526247686783214
202.0400000002366,mud,0.8015008236865203,9.304183134358123,-0.4921226483645693,-1.4376072604494232,-0.3634810658885448,-3.6473721600000157,-1.9537787463669825,-3.392013102904628,-2.7585902912137943,2.8791677655275323,15.581149063153031,2.6050083785067812,0.6468414118768905,-0.22492495656803432,-5.3591614894812265,0.29006887610213133,12.821654477439363,22.817193008630884,29.608079137507026,0.0,-0.043344395189461836,-0.1280969256811613,-0.22989004505136335
202.0600000002367,mud,0.8739713813414005,8.995341130836486,-0.04633308918941026,-1.3340223310147405,-0.8284809503737083,-3.1634587488045316,-2.3143620689181046,-4.443229129548013,-1.5649122267256423,2.9397156108611466,15.60727549822063,4.326543609087288,0.08531405983512586,0.17929334158981763,-4.003880363110414,0.2846196982914717,13.776833184269087,31.058065748676,42.36500305694312,0.0,-0.05393209600511136,-0.14185280435436454,-0.2220004663931476
202.0800000002368,mud,1.37339213362838,10.317785291662352,1.6325075888636125,-1.3254644935672601,-1.076391456986951,-2.6833401549234184,-2.8763891211016164,-6.54496179669207,0.4497319600515013,3.2247768027906023,16.614023875763614,7.120504682309372,-0.5758269249515957,0.26582340995896553,-1.2150903262046187,0.27770275838800734,21.959966982483092,48.63776017175162,58.48720386928549,0.0,-0.06409409862193126,-0.1534901771614238,-0.2122309186047366
202.1000000002369,mud,2.477591440790053,12.628626979822453,4.451280769478759,-1.4893337469518615,-1.4069248225907174,-2.308866521955654,-3.4950918653710654,-8.566005462778458,2.883843592278385,3.4605211681819847,18.244146004792793,9.048829111094538,-0.7692681089989828,-0.40833949781032125,1.4202229511916018,0.27039929035751903,38.160131610457235,65.24753869099558,64.73976017578507,0.0,-0.07306510260909536,-0.16029046259730112,-0.20091312596331282
202.12000000023698,mud,3.729406390518467,14.498379654656363,7.009589222211277,-1.6752053729678176,-1.7701955806304506,-1.975109259220134,-4.017160499717704,-9.959367501064035,4.676090168075735,3.635805065154978,19.384049424353645,10.258278591769015,-0.683878901035224,-0.9164618104003968,2.875203264544369,0.26369823415776616,50.860184157861966,72.29106635382891,66.88035801653301,0.0,-0.08001370969523011,-0.16385885294510275,-0.18817461306471228
202.14000000023708,mud,4.642117156313885,15.857759122905728,8.220808663103988,-1.777227283616333,-2.0884999796012824,-1.6217868499807193,-4.592405316334022,-10.860870476566484,5.88207369143632,3.6087559230356208,19.871905655799438,11.198085003735153,-0.3783748802867406,-0.9890700981121281,3.1681480365644483,0.2581307567006884,52.514888954228375,73.69191216177111,68.20550319278107,0.0,-0.08498649039760287,-0.16691944953695517,-0.17446678102129062
202.16000000023718,mud,5.139641701143031,16.4049920823853,8.720641264700799,-1.7885452240845248,-2.3811421232935928,-1.263944436343205,-5.028933282068239,-10.711824806810588,6.557484541873063,3.5314444625716512,19.855173930478248,11.950061501521278,0.0657987311166672,-0.7307209106780443,2.783131194794562,0.2537908369423394,51.21968771531182,68.427345447672,69.12012143200364,0.0,-0.0884188663621193,-0.1710106759582917,-0.16032454169318863
202.18000000023727,mud,4.950733104597294,15.837955523065471,8.559999832730785,-1.7809707909713302,-2.619182392419427,-0.9114124959642154,-5.044437230615806,-9.840259035586394,6.625022921451944,3.4883096539808416,19.348785431639975,12.703262326979122,0.3868743206567605,-0.17588791992751848,1.945168622319107,0.25050634446682185,46.810554905726974,58.68364547552835,71.26150967877851,0.0,-0.09077624131862425,-0.17757938007677132,-0.14662242135192466
202.20000000023737,mud,4.175476431416582,14.56909127698404,7.838299510256189,-1.699467846181223,-2.780845170151422,-0.4382621534675587,-4.785298525006545,-8.987922417187793,6.824776193035431,3.43439014420138,18.75431280154544,13.570995374364813,0.38802138507435513,0.40208797463847656,1.2479118288131,0.24795974481958297,39.77058529525637,52.64059529482469,74.68259263490255,0.0,-0.09310586935680837,-0.18690174843639412,-0.13406676345462573
202.22000000023746,mud,3.5708723792626493,13.43120155544757,7.322025198907104,-1.5851572183344897,-2.876152831499466,0.11597104503184985,-4.578760784288242,-8.484269274408135,7.487035997504652,3.4240551318715884,18.442173656939367,14.439053227178121,0.21432485065297777,0.7298209250801918,1.0666912335481327,0.24590493807845037,35.222422717907,51.56235979681924,77.54003594963602,0.0,-0.09604747443646483,-0.19745565857864258,-0.12244650763773464
202.24000000023756,mud,3.466433195938472,12.937884799006131,7.386285682812178,-1.540618668583503,-2.9630776427543326,0.4392886677621941,-4.5402787150983475,-8.177202620176104,8.38886700232183,3.404499201394666,18.330289436125213,15.144724000430667,0.1059785286983879,0.8014430847501641,1.1787349925008581,0.2442787298438922,34.62025567709452,52.43810867552923,78.89427027007014,0.0,-0.09980610105545004,-0.20775862657242164,-0.11119058616102075
202.26000000023765,mud,3.6250320770853435,12.859397840382368,7.762008588587234,-1.5604112155100591,-3.0414552809785516,0.718200458837043,-4.5631942509459495,-7.8339578891062,9.394991517696987,3.3244132444408163,18.161069429999348,15.683947167887016,0.12486908615880048,0.8312804027869488,1.2349474770725937,0.24311784359573838,35.68026570097087,52.06971052628507,79.27420605030359,0.0,-0.104538463664437,-0.21750241361794215,-0.10004740051842338
202.28000000023775,mud,3.794626816453073,12.826220432037761,8.107429917880655,-1.5746943123487915,-3.0914528714386567,0.9764120931025659,-4.557255946976217,-7.445983389282528,10.148117060488108,3.198004331826236,17.840252721709334,16.084869735561078,0.11637558959423784,0.8476877836010505,1.2321293679416718,0.2424466433843972,36.420759109181645,51.78923196518798,78.92340107789146,0.0,-0.11050695997006547,-0.22717314407894587,-0.08916712088119128
202.30000000023784,mud,3.8622546012465446,12.634595845987471,8.310021734242067,-1.5705507359684927,-3.1139592823193007,1.217865121064985,-4.501753866261657,-6.98589162486353,10.712667367601945,3.0498442695773424,17.398009678212315,16.364011819111465,0.36409997360309754,0.7655632755432857,1.5236899362606147,0.24225437224799554,35.99283005544372,10.297488215525291,48.90579698416818,77.15318514946976,-0.11781747905694544,-0.23716970957404251,-0.07872549811312887
202.32000000023794,mud,4.11805103650857,12.690401649067155,8.732217150730314,-1.3748698733406277,-3.0386631103400736,1.516814727123318,-4.620442097971684,-9.507626053193853,10.155341468473413,3.2403636900904953,17.77392810573014,15.837602761410569,0.25601588566681355,0.1789028646841267,1.8748981268952378,0.24263371978534626,37.46386375323469,13.576647220215575,1.96359923920805,8.096944717653303,-0.12510963037127543,-0.24586483673671913,-0.06902944018002642
202.34000000023804,mud,4.575849628182158,12.807278727473895,9.223258431541927,-1.298714945805101,-3.0541386266713815,1.7253220130057674,-4.90535020135499,-10.31771899837672,10.630409673521028,3.3298133083196184,18.050250603781404,15.232175317031889,0.4916518955421117,-0.4169678595161749,1.9680438013922308,0.24374994108740547,39.15400461898571,19.282212957972053,0.0,9.659076245290837,-0.13085562597166647,-0.25114926577366936,-0.05878873762013473
202.36000000023813,mud,5.028553303780145,12.710015809278493,9.556347413777713,-1.2817229422437375,-3.0436841339412055,1.8945413641540547,-5.176424364601842,-10.299468625048721,10.853443071675033,3.359589530523068,17.90962319955274,14.774362350670744,0.6814732489812716,-0.5908326645834319,1.739343975977737,0.24563324824727237,40.13379249515619,19.403122886227777,0.0,10.328096282605388,-0.13439765366538642,-0.2532127376295458,-0.0469071727458118
202.38000000023823,mud,5.3338721259880195,12.394173606706348,9.615813435355077,-1.2825105840650506,-2.9986409535281187,2.040885485116557,-5.332167750959421,-10.117239323141906,10.508865199430286,3.355122718876978,17.42178445908487,14.433387066097051,0.8321571567656618,-0.5255973318090632,1.2146201649998392,0.24818075451894125,40.06861722991193,19.120101722830185,0.0,10.618236400372632,-0.1357995683163232,-0.2529371170486775,-0.033336007795222854
202.40000000023832,mud,5.501966940988545,11.938187272616073,9.545754942497476,-1.2761839753646427,-2.9175460569703926,2.1711916444835317,-5.385479607287868,-9.945174450098191,9.932774352516953,3.3320168752627435,16.773912970428277,14.163207754067521,0.8998630024976662,-0.38438618090054355,0.6528003371877876,0.2511855738215805,39.42883472156244,18.855243667939995,0.0,10.703158217138254,-0.1355383971706068,-0.2510897217670847,-0.018527776493544024
202.42000000023842,mud,5.615834435703784,11.493983351509964,9.466020127869374,-1.273563559307567,-2.8097965454357903,2.281093531644858,-5.40642023036906,-9.717222311985028,9.589821807334882,3.260359594953365,16.103694752457493,13.939904429154417,0.8798372665058241,-0.294776267262891,0.25089468322741254,0.254434390881086,38.92173114056211,17.908233165752527,0.0,10.725835326299734,-0.13420317649436223,-0.24804957540455708,-0.002962747336247986
202.4400000002385,mud,5.760376868217721,11.123129434304271,9.426829074207777,-1.2777337470221526,-2.6996999924259137,2.362692321251312,-5.4571662706162805,-9.257039506157803,9.615122679651858,3.105030507798351,15.391597124965537,13.799575369984325,0.8013181326100459,-0.23769882986427826,-0.10400409036533471,0.2577677631818306,38.825452573656946,24.1524048041342,32.1245442055521,52.10866971138826,-0.13235586633662882,-0.2440099443824075,0.013088371592470078
202.4600000002386,mud,5.944779586298328,10.805149454709664,9.40417805676592,-1.2871075182788654,-2.562260402154771,2.4258953226887128,-5.446128404053802,-8.672361326155116,9.84106752742522,2.9052185999641287,14.665771376106735,13.685114421660282,0.6930151491036944,-0.17406345648497115,-0.23992914010007096,0.2610600453742111,39.00259237221534,21.298276195578975,33.451348572336386,51.44637164633802,-0.13041309069884663,-0.23936273673733352,0.029442057718019363
202.4800000002387,mud,6.151895451834821,10.533912989059486,9.392767786772776,-1.2935805559531746,-2.416198986451924,2.469365514733189,-5.415267043517048,-8.15025564971084,10.075002421584545,2.6779801057976327,13.983190432761505,13.515317455706393,0.5867379920843101,-0.14985127511140972,-0.36611083423547247,0.2642510626246882,39.35820350439819,18.305771831104078,35.0969322518463,50.63649824052371,-0.1285822762230701,-0.23425508270762782,0.04579773964685879
202.5000000002388,mud,6.047629953399014,9.9866744192096,9.063152018565507,-1.3859531338914963,-2.3543442267596957,2.4275953968787842,-5.098588092684135,-5.245235074739194,11.35329837325439,2.0646708792844946,12.61504256645432,13.786265150107091,0.3744190242823926,0.38406325844082745,-1.0699087302601311,0.2671826484648461,37.46498356348471,42.07971324719102,54.13090592561165,0.0,-0.1281295934124033,-0.2300897153097155,0.06203338775848154
202.5200000002389,mud,5.914138505861858,9.46415956378344,8.720996342659989,-1.395187546760611,-2.1300981553772482,2.4610057961511718,-4.91997738266468,-4.686115612588136,11.03127782391331,1.5875052827487326,11.556977169403353,13.819726685029078,0.20103167185550275,0.6712388333855256,-1.2187720194671119,0.26966283534387664,36.057514317027795,39.763340144102294,55.560898528995445,0.0,-0.13020974059969348,-0.2281793803315883,0.0771562699437486
202.540000000239,mud,6.014732413665054,9.176456963328892,8.572480073548821,-1.3550839892641344,-1.9102614547831998,2.4798963993861296,-4.8230650619016675,-4.366811855675361,11.687904077419597,1.3191134029042548,10.930295898118228,13.607549608374903,-0.10414089068417602,0.5097685735334233,-0.8820635439755381,0.2716784511266083,36.304568806466904,45.134653331334164,54.93629404868422,0.0,-0.1342410279594679,-0.22727672035491792,0.09052371867891855
202.56000000023909,mud,6.414266852292866,9.102233099513334,8.64654317209428,-1.2821118673690663,-1.7121281727923732,2.4708986468759893,-4.868578285592075,-4.097842249300326,12.861093348735189,1.1760972319778011,10.628108923928313,13.146915292607357,-0.34586424245596203,0.08966750193231747,-0.36512222634402375,0.27336760537064503,38.31351610053395,53.062195114922986,52.213842279957234,0.0,-0.1390443431455724,-0.22607127871676777,0.10266998321546815
202.58000000023918,mud,6.959907632224102,9.085052016677539,8.774792034593625,-1.2549898871464282,-1.5416348019812776,2.429782030616047,-4.929003013115688,-3.793941880532085,13.822378648112533,1.0455909720025807,10.396456340727257,12.53800627175904,-0.4469317849250221,-0.30669823230025467,-0.03905540369975161,0.27492188511207316,40.67851659634884,58.87151012460615,48.518798812982,0.0,-0.14352597614832172,-0.22387539547162313,0.11447874811978172
202.60000000023928,mud,7.509848375859286,9.067106532250662,8.712944321500798,-1.265577835227852,-1.3801554356598764,2.3655585386590614,-4.946077738193138,-3.4739563210154394,14.393046100374775,0.88506568179024,10.064272918464345,11.880330247988478,-0.46919870723468643,-0.5938575213620979,0.07893798318558273,0.27646362076865993,42.78511051084475,62.05670371164584,44.880962532997366,0.0,-0.1470207271719153,-0.2207211725862576,0.12655760222178683
202.62000000023937,mud,7.95892825535695,8.971237803394462,8.492830297887208,-1.2711199720078064,-1.2029717812233462,2.295409274913583,-4.950372167592244,-3.1426247195000787,14.731275753721063,0.6750573415627756,9.629472664401764,11.210424758350435,-0.4781909434969354,-0.7913165533641102,0.007173320618562234,0.2780303364328828,43.256830331692356,63.98604812441546,41.548853702060484,0.0,-0.14927538005040095,-0.2168933445053681,0.13914897695643552
202.64000000023947,mud,8.283886578137352,8.747972205682347,8.285264817720844,-1.260280577645461,-1.0091430013439697,2.2209225183243495,-4.942461170092117,-2.7670180950906254,14.996453933537389,0.4398424397219054,9.161681678533064,10.55455725554973,-0.5007229737132387,-0.9632867181972442,-0.08118198546893965,0.2795966054621307,43.24046861151955,65.72046846010404,38.57280051187446,0.0,-0.150178231414115,-0.21242812771162398,0.15234991455922778
202.66000000023956,mud,8.495987980460914,8.466540411328536,8.027918122805648,-1.243626580686661,-0.8090127693460156,2.138871386948421,-4.901574375785164,-2.2580266582586077,15.249757160257637,0.22309815210363015,8.68115568619399,9.945739879731164,-0.49020642268775827,-1.0983436337537966,-0.16018574030550647,0.281127675843453,42.842281451403196,67.44717608714541,36.118837813650885,0.0,-0.14957888676926157,-0.20721519565842209,0.1661788243430578
