time,terrain,torque_0,torque_1,torque_2,torque_3,torque_4,torque_5,torque_6,torque_7,torque_8,torque_9,torque_10,torque_11,accel_x,accel_y,accel_z,height,contact_0,contact_1,contact_2,contact_3,roll,pitch,yaw
0.0,hard,0.0,0.0,0.0,0.0,0.0,0.0,0.0,0.0,0.0,0.0,0.0,0.0,0.0,0.0,0.0,0.445,0.0,0.0,0.0,0.0,0.0,0.0,0.0
0.020000000000000004,hard,-0.5553521044959175,0.010706157924637694,11.252270214128956,0.22031486685121981,3.1976722216707785,-1.9069093594719106,0.5450424570728157,7.805980449631246,-6.1529566159159685,-0.22040580010881786,3.28725966584307,11.51781983494972,-5.451193167289442,0.04296780848648538,-6.4437319381916325,0.44415508457588154,27.38069903259445,21.834635478770647,2.721874024320755,10.256460922556512,-0.00018306348663298103,0.00945174385678827,-0.00024793930237926174
0.04000000000000002,hard,-0.1912289207832248,7.251149966712074,6.034295552473374,0.0883800814000886,8.04768757604279,-8.042789575136304,0.3473566962511522,9.85801427872154,-13.702545859334656,-0.20781464317659695,9.471159819181594,6.289142574712635,-0.3270565871756937,-0.07979575479008152,-8.311792061851015,0.4405754909842711,13.481336607372569,10.203487809398293,0.0,0.0,-0.0003421615970668857,0.035343488789131745,-0.0005905039547013446
0.06000000000000004,hard,-0.06451477015389795,12.763691898059335,-7.03416751692356,0.054416120596604216,7.560613597880746,-15.330659056632292,0.028004978835948796,6.269434204571063,-17.75999431049287,0.2904278226658247,8.350087813743944,-7.60190944683135,0.569630617430115,-0.32468641157743805,-8.074959125750052,0.4335998885830205,21.00713815024755,6.077203488322933,0.0,0.0,-8.935287472285127e-06,0.05399292027261519,-0.0008059740099864654
0.08000000000000006,hard,-0.08790918993368327,11.382237720384733,-6.517193809316666,0.0736333218434324,3.9421916392818197,-14.496257108715028,0.10975198161072881,4.946761609802838,-15.70683394545231,0.24032981274519688,6.816524678913417,-10.60386191767914,-0.30574395220846157,-0.6349526147833632,-6.83930320738766,0.4233557500190495,37.55722064729845,9.165839703774537,0.0,0.0,0.0015075430704768503,0.06214082883180522,-0.002571818668900124
0.10000000000000007,hard,0.1990851310513179,8.468549364363781,-3.4414784797230844,0.34175901056811864,0.5691397988337794,-13.635449923619447,0.27817813178853756,3.8214095781429354,-13.838342440494145,0.3920256224060959,6.22268255594291,-9.437650524813353,-1.4059947665164185,-1.6014877553200857,-3.2740495922815276,0.4105483667863825,84.84507304920812,14.465647777148394,0.0,0.0,0.006013643752951961,0.06085122591225006,-0.007528827369322699
0.12000000000000009,hard,0.42827572501923694,5.767031764073554,-1.8680641699774547,0.530719246139512,-2.693930255210022,-12.577288879903573,0.35171017730333964,2.993049332754209,-12.090541571295095,0.22507577363901599,5.930357527601728,-8.325296161651917,-2.32456972442939,-1.6421116029965916,-2.17711984810386,0.3964015709844751,90.77911017137961,23.018802929208775,0.0,0.0,0.01548888553752242,0.04845147515244286,-0.016853110377652133
0.1400000000000001,hard,-1.2990036311550226,5.207852867690628,-0.9205667387180618,-1.0595820786235195,-4.978090951364309,-10.964309557881602,0.34506280335518247,2.9415435066171858,-10.449821202765815,2.0738768207311225,5.541235798552478,-1.7710135731665133,-1.4935697100977343,1.0081379301233528,5.324555520858033,0.3816896999437334,81.39695575351867,33.4943005397298,111.60286685719484,0.0,0.025220942337937338,0.02933330714662552,-0.030317089239078752
0.16000000000000011,hard,-4.007009441624538,8.347294985849423,1.7350014826744484,-3.7659759348947253,-3.63770952158084,-7.709213336132734,1.9116021831182963,2.9417915173052283,-9.05948749423068,1.7289116199338976,7.022251960901544,7.267931031740741,0.8225226152792906,2.880561688892649,7.922603718335106,0.3693011861796925,70.98738363454493,40.25185137894999,151.844871853357,0.0,0.025045639800263718,0.021659849782378553,-0.04730223762257874
0.18000000000000013,hard,-3.414794908519095,9.348395602391303,1.904263414916402,-3.2599599375508514,-4.843795211730074,-6.62876266830899,1.0697709537423323,1.2551810162538217,-7.78794168089566,3.0050857983597514,10.12200339240706,4.869043508464671,0.907539228560134,1.48912520407527,1.1354059733203197,0.3595766900303074,50.110167687097594,37.734524519910465,76.08987195702575,0.0,0.0238605090973301,0.02110489424496986,-0.06476158367201093
0.20000000000000015,hard,-3.2056310267673185,9.003976068529468,2.128219997423699,-3.055297334534732,-6.9238257034917385,-6.075370093866354,0.6411206681935585,0.6040463141092434,-6.568326334222128,3.5765333497618776,10.032558066367795,5.139350088227067,0.46907595448847345,1.4726049502919931,0.32414931864375307,0.35037062439461475,42.90735748586451,37.92467824403052,70.14128884192893,0.0,0.02369171321911458,0.016566457250245258,-0.08027584861293464
0.22000000000000017,hard,-3.559303598474112,8.743524767968157,3.2191043706937865,-3.3327971843817386,-8.342035634495288,-5.093510844958814,0.666793155866867,0.1643472632774487,-5.487599853536421,3.7260362070556745,9.711160920505662,7.094061539625487,0.3121958855506573,1.7989973628304632,1.3604471921206351,0.34135012289816447,46.038061903211656,40.62104355204761,80.08455798487934,0.0,0.0213957881680274,0.009638043584207293,-0.09431077703320037
0.24000000000000019,hard,-3.8579601029855675,8.48076368264613,4.545964843344546,-3.4860094435796745,-9.328378241379486,-4.116149542237517,0.7694990832547429,-0.4308114692794164,-4.5581162358078124,4.005456460277893,9.805956734338757,8.629150479313841,0.16392386094107628,1.8139067642535145,1.9054339360211108,0.3328696261502561,51.50172718393029,41.92828108354038,81.76539668625131,0.0,0.0165107120925532,0.0018933538052435346,-0.10745684244978465
0.2600000000000002,hard,-4.114822074665796,8.110154803565095,5.583178717912483,-3.3115612919117634,-9.722188503329381,-3.2342258153672017,0.7347656459410765,-0.8299526011693323,-3.690182196286438,4.312204495152248,9.907142356949855,9.625026531121867,0.14189919460554448,1.6931976481423823,1.8405756480098114,0.3251210257249804,54.60704986954795,40.051544575836246,80.03964638066203,0.0,0.009219953083241103,-0.007195237193408289,-0.1198861066310204
0.2800000000000002,hard,-4.48859252078368,7.586182601474896,6.331831817404199,-2.7231995168759924,-8.854515003587734,-2.4667710531594906,0.6756675726875379,-1.1676088122537491,-2.8978179640674337,4.499557657107156,9.700823126749647,10.601346177511635,0.4884258219303186,1.479385008031061,1.4219606943603094,0.31806457294164303,56.548682693826294,30.90096904096025,81.37188800572649,0.0,-0.0008662461836971473,-0.01836803490215183,-0.13169315997870198
0.3000000000000002,hard,-5.038700142880415,6.834229297652499,7.035957954937336,-2.20864082062421,-7.003389220909542,-1.8568422286611872,0.6713277678766686,-1.4322976931359839,-2.192432753892393,4.562913067389446,9.235520193461479,11.660236764150861,0.8926051790491456,1.2599798967833302,1.176641061169284,0.31155353468054475,60.09237078853842,20.221926111015136,85.23249766489187,0.0,-0.014217821438089683,-0.031651810094311214,-0.14305293806912203
0.32000000000000023,hard,-5.401855095021704,5.827006874045531,7.8617905656534806,-1.5500967037324012,-3.428661999747959,-1.8357815507991053,0.6892422724450827,-1.6496391224562625,-1.560893557507983,4.846884740474081,8.549351788817658,12.790529809498073,1.7649174844672026,0.6535431777403462,0.6147824217565366,0.30546396372384255,66.546960477157,91.22253394147221,0.0,0.0,-0.03028680223309506,-0.04661866137855208,-0.15412108634689736
0.34000000000000025,hard,-5.6499788381027045,4.6755400110761975,8.730642176780023,-1.6009337981595266,-2.908467873315578,-1.2100288139080333,0.7467420280327133,-1.7594123260479866,-1.014503471511078,5.188082132725057,7.806998072515545,13.725493375769473,1.4557001027079508,0.7000481755594028,1.364438126179991,0.29968935791813794,73.99445236443206,95.13541945105607,0.0,0.0,-0.04794871016254975,-0.06259794773911541,-0.16481290940231183
0.36000000000000026,hard,-5.060016504617433,4.820205745521656,9.873623730198208,-1.289116344105843,-2.682729878147594,-0.662775233933409,0.7347630241687336,-4.850137205194816,2.4123865291972084,5.5797364032402195,8.659132356928485,13.35109466195399,-0.22714350412890638,-0.5543017907536194,3.1674347386994834,0.2946543164168775,77.50156653438701,34.30817272042611,81.05960742898917,0.0,-0.06541443505885539,-0.07713373133156583,-0.17409127474756012
0.3800000000000003,hard,-3.921036278141155,6.253092254361869,11.00103305568404,-1.2438288308724383,-2.6547710487942258,-0.05011229511415244,1.0348746487909837,-6.829143118985548,5.5515914200254395,5.290684232889964,10.136554033485734,12.251299831710805,-0.9672166246692411,-1.8157779420097753,3.4989535912539877,0.29088504386950487,74.96481579446368,59.56034591377848,61.67104080862448,0.0,-0.0794694185461159,-0.08685755644896903,-0.17859810569020795
0.4000000000000003,hard,-2.6758757392390335,8.132271839118088,11.664909197753019,-1.2574504325337128,-2.6665763315299884,0.3578716684094836,1.3350658386135472,-7.455054139669074,7.762597629383866,4.501042468950084,11.046449711994974,11.470310878249752,-0.5535627717208682,-2.2198952754435273,2.6936417523994676,0.2884396747238869,66.78829329933434,68.83345063957701,49.26929520342204,0.0,-0.08942086052583616,-0.09197172193221155,-0.17681496915555833
0.4200000000000003,hard,-1.6616996062857612,9.444569485006925,11.717504582845462,-1.3264558328230611,-2.659163075188241,0.6365364117296421,1.227995908037017,-6.992978122467164,8.1730762372595,3.793187730914815,10.863448005369904,11.408477182003239,0.13504474326189844,-1.801439772314344,1.470296375549685,0.2869931852803778,57.707663356310434,63.45957173787845,47.32271049985876,0.0,-0.09564348692414917,-0.09489383421915112,-0.1698634680228695
0.44000000000000034,hard,-1.019581808591504,10.149967032661355,11.647988377902056,-1.3418774713088135,-2.5540717526573395,0.9020018977417386,0.9792659252111443,-6.749687663443817,8.438065027437942,3.2144584844227606,10.32332280271314,11.66604206186927,0.512840589173934,-1.2431616199212616,0.7942383793547546,0.286109698435852,51.89340512549409,58.12255651370029,49.74397804437039,0.0,-0.09970378274834568,-0.09713087096456846,-0.15992117019897198
0.46000000000000035,hard,-0.5232047501249406,10.499108321181271,11.742039525058804,-1.3379804466939005,-2.4023010542762746,1.1370285973185772,0.8765289055632255,-6.68800894193585,9.073355458049303,2.876855815834484,9.926599285164949,11.924921156152468,0.6406894436215985,-0.9760572472163982,0.7094056870793319,0.2855533589763425,48.50789580827091,58.64618364291226,51.572784452565614,0.0,-0.10226167333497616,-0.09869449417041497,-0.14870439772076105
0.48000000000000037,hard,-0.11140907691967117,10.792391718826597,11.828442135738108,-1.3316628910566712,-2.2583949616320957,1.3275772776252155,0.8053784355965253,-6.600595361083741,9.739216649429268,2.5935461118641405,9.733254070774361,11.961938273538449,0.6728002773969868,-0.9282283444052635,0.6672451810389967,0.28527390220530685,47.01368968458403,60.240309028390335,50.947232691326846,0.0,-0.10363669885465901,-0.09914172220463915,-0.13706646785679236
0.5000000000000003,hard,0.2993499608311394,11.011387351364348,11.88279646482859,-1.320024579467941,-2.121955438897129,1.478627059016231,0.7657935670363509,-6.4844570146216025,10.40298663364492,2.337561134042699,9.5815126211519,11.809092797955435,0.6791644581207441,-0.9779640995946894,0.5895135409618891,0.2852535808078121,45.88009111529376,62.17039078691023,49.08617208684353,0.0,-0.10379972852705081,-0.09838771493334772,-0.12525344542275113
0.5200000000000004,hard,0.702630083477193,11.161107729612171,11.859565179445891,-1.3090282381334377,-1.9764026353080588,1.5977242077842435,0.7290523782078436,-6.320163174420599,10.999408318332598,2.0868148500134494,9.387350836588585,11.568553011875304,0.6802816937412184,-1.039431662929051,0.4836624522979268,0.2854609305515126,44.63083100252431,63.92986398034995,47.122754760311594,0.0,-0.10264393209227686,-0.09653904638702161,-0.11331942810391014
0.5400000000000004,hard,1.0844795666980263,11.234300413123,11.760545898913925,-1.294719071585343,-1.8198260602965624,1.6888145633913307,0.6922357590232631,-6.093472301596873,11.525433939951196,1.8443982105942218,9.130062367210527,11.311931158606708,0.6757475181688761,-1.1127852557851639,0.34727422004838204,0.2858530135217007,43.32221890359175,65.49189987747512,44.99901713588291,0.0,-0.1000888379947067,-0.09366834555603795,-0.10130531532575353
0.5600000000000004,hard,1.434446826494505,11.215240697890566,11.603589278612192,-1.279003351865441,-1.6522523445512256,1.7539707168004535,0.6604175327728046,-5.794627419633944,11.984327503897529,1.6142068609785398,8.821479358101534,11.04991291858725,0.6732969817050211,-1.185518452176463,0.21913056726846816,0.28637739287022684,42.12914512768917,66.82599956381686,43.05293580141382,0.0,-0.09603428969185178,-0.08980912451572731,-0.0892649590984287
0.5800000000000004,hard,1.7391908405696725,11.093527721007247,11.394905959004216,-1.264401438668732,-1.4765968958743052,1.7944605692467954,0.6386761295225225,-5.419341895910469,12.368866029425192,1.400739618269254,8.49723187502011,10.74410582790255,0.6848611724376695,-1.2526820316662721,0.10282995754397288,0.2869838343996967,41.067936292986,67.83626108924072,41.48075138604287,0.0,-0.09037707179844882,-0.08495303131449385,-0.07728488631875292
0.6000000000000004,hard,1.987006490266302,10.871083919829848,11.132629744085085,-1.2511194649147495,-1.2944560295652692,1.812506074014549,0.6279446969585127,-4.968938748318646,12.673907936202472,1.2098547584742907,8.162826388840688,10.401371967156082,0.7152141497379311,-1.3101643566340548,-0.010655695530866543,0.2876263546517904,40.036002903322974,68.45597956408481,40.315216760704885,0.0,-0.08302938548514464,-0.07906867025712962,-0.06547995692315879
0.6200000000000004,hard,2.1752925604535434,10.572135307566947,10.810138893009334,-1.2378649145963152,-1.1071375321659742,1.8105861949417976,0.6271818317102542,-4.447608574801306,12.900869885958194,1.044054499817231,7.819950029022457,10.028083546211331,0.7585173520269086,-1.3601295276843102,-0.13061486765428415,0.28825960827599234,38.91004774318683,68.67151552653593,39.47009239823845,0.0,-0.07393040738140685,-0.07210442821112968,-0.053983958880061717
0.6400000000000005,hard,2.3250815503765665,10.310040589174845,10.406924161295926,-1.2244935543888318,-0.9146832812146295,1.7915252798814443,0.6253949394796251,-3.850326859746783,13.053833301682635,0.8940435410329566,7.475324650835686,9.627772632542209,0.8212963109089388,-1.403370526195907,-0.2759488495179279,0.2888339463714067,37.63632470844318,68.47889052518407,38.82953665660082,0.0,-0.06306234624753171,-0.06397472787037105,-0.042933160975503384
0.6600000000000005,hard,1.7720045973904677,10.000417810697174,9.860665284854656,0.2989396054653424,-1.7289675202922585,3.4924490078946455,0.051171442998071415,-3.399123297262463,13.30864558554283,0.30991823326546175,7.243559381975893,9.1211267432913,-0.27867074566448274,-0.8941083671917559,0.5608497564666153,0.2893461046552812,34.576121211381555,21.8715590965534,69.6361433931241,34.6489582115586,-0.05172435808350003,-0.05489758838135123,-0.03289594655449146
0.6800000000000005,hard,1.0852542780259486,9.07078430990231,8.722664921322279,0.5567082967556917,-2.6718423910303173,6.738700180588009,-0.45544184237491936,-3.1990401465193536,13.401803631892667,-0.11694560129141562,6.889818501129832,8.3964071394515,-2.311603328061998,0.3834553102088055,2.3323593205200313,0.290188562153322,27.457219556715547,59.626984614034384,70.05061401915616,29.662227583317318,-0.04212032060247137,-0.047277907966827536,-0.024933776500691316
0.7000000000000005,hard,0.8449669218486778,7.397317606710954,6.773261009541497,0.7097915280269996,-2.6732993699195466,7.750873363797114,-0.5973965778434237,-2.688566020903813,13.03728121283843,-0.32934888549524,6.4008902812321,7.502438561308398,-2.634885064809387,0.5334664722138102,1.3787400368104197,0.2918779554742972,19.253372623117777,59.24176384864676,66.42592429088572,25.497402228549305,-0.03372651752752917,-0.04391826146692738,-0.017974979861437135
0.7200000000000005,hard,0.794523887917322,5.787101495227384,5.1900390488612524,1.0884300495482706,-1.4730264946847291,6.515308681120558,-0.5268059087375498,-1.6182077755419622,12.684771041227668,-0.3994372091514842,5.988771504827792,6.95013876487047,-1.6592481295358827,0.07517226897229147,-0.4685691012711299,0.29403533272512783,13.609049615591282,42.17074344706767,62.45238583311405,23.912579754783735,-0.025447038286315282,-0.043542313964572144,-0.011145038113360338
0.7400000000000005,hard,0.7695323513594302,4.726494183585993,4.192525501044432,1.3972219645048993,-0.3078731571510462,5.911055887616809,-0.505052068972333,-0.47340356958282426,12.676629996403282,-0.5525874696935645,5.629183245748072,6.587627877185679,-1.0155348321275564,-0.07640529250883542,-1.1010784674069336,0.29600397417078184,10.703264721461585,34.63231999896694,61.38407492705335,25.90513806490049,-0.016845728879493736,-0.044170640783463895,-0.004292898465276093
0.7600000000000006,hard,0.7985897933184677,2.1245888110534494,1.3242449533035456,1.5670535892067086,0.9708279512960066,6.459668777503534,-0.7896663391009069,1.2663391471527525,12.82259190971283,-1.0685130051141736,5.470219703723648,6.535705472821523,-0.9552588910076284,0.31493538295601975,-1.6201699045735434,0.29739903104004706,37.577798619744925,60.116954088890445,27.264964346469743,0.0,-0.009019517434271622,-0.04385200401587443,0.002808483592629379
0.7800000000000006,hard,0.8131402864718588,1.720760757694495,0.9622243210277821,1.7266236205052645,1.9841331766006878,7.03126821265431,-0.9135360358121117,2.5045632956104917,13.230788795262445,-1.3644275425011894,4.936119980420032,6.586779639270084,-0.7436274881294502,0.42326011343587316,-1.028747581589436,0.29817817324124674,40.670047582711334,62.41253740118478,30.7862969087058,0.0,-0.002000210243855202,-0.042948279321612534,0.010032752449106107
0.8000000000000006,hard,0.8245584826786003,1.4169698219215965,0.6763874927975335,1.7788020523659454,3.012659214258248,7.36875977520572,-0.9662334076470802,3.5067152607330025,13.685598389132235,-1.525152131961585,4.265351491487231,6.619607776794705,-0.5693584650651764,0.4344849742787551,-0.5227035236254648,0.29856719500548234,41.15623453742851,65.49744775297967,34.71076356846951,0.0,0.004347641446443495,-0.04251431146485364,0.016719391463728056
0.8200000000000006,hard,0.832842131779257,1.1281313203376304,0.4356664511538839,1.7872755945817773,4.145818592592365,7.477297590296695,-0.968343921802944,4.474378774352263,14.066917116648366,-1.585315559425659,3.55010709045155,6.596968416500135,-0.3003194645391344,0.3665199659468582,-0.2692912197505411,0.29875407723591213,39.29699911236073,67.80404625648855,37.932959353895555,0.0,0.010203761842883357,-0.042600352209563465,0.0225840740650658
0.8400000000000006,hard,0.8389820395643226,0.842869559910508,0.23150750760794514,1.7743543811906837,5.299934360771839,7.486505073626221,-0.9474440829423711,5.412774799719884,14.355149586556877,-1.5922591028868345,2.7772267692708623,6.483034341072563,-0.020515870454081132,0.2730388751692115,-0.1751169504735583,0.29883452640256464,36.708217565006294,69.3167986841401,40.348118988546304,0.0,0.015752572200510614,-0.043081289094651455,0.027563526127389416
0.8600000000000007,hard,0.8442637242496279,0.5673841213114932,0.06213464417351777,1.7437938722455877,6.424186491828137,7.495350134501235,-0.9228981385722241,6.313274155742107,14.58908579495159,-1.57730468609541,1.9209520133302238,6.307845678822561,0.207040713623096,0.19156361194430588,-0.11206733499582222,0.2988470162409024,34.395458855648876,70.44757627913175,42.44401383198576,0.0,0.021130610173246835,-0.04385747307346278,0.03169322098807346
0.8800000000000007,hard,0.8492844573359472,0.033471512046551535,-0.08199768211960248,1.6871830806294512,7.510547921275667,7.5425374356402575,-0.9070036725442925,7.181681569089584,14.788714227628423,-1.5575255557644474,0.9766109236826527,6.105216360755414,0.3779225303257237,0.1391966250075435,-0.03318349537300624,0.29881672193076014,32.63977906094285,71.29654612983929,44.50945458567787,0.0,0.02639988044209546,-0.04482213911678882,0.03503329114199233
0.9000000000000007,hard,0.855452135563851,-0.2552508198386325,-0.3485788528743241,1.6211451800222902,8.568497143296986,7.628458492715741,-0.8913891245626672,8.046798254514368,14.926915471945847,-1.5278497734380856,-0.0407200848538132,5.884839818154795,0.5098127300592801,0.11254073863807358,0.0379414954581495,0.29877471339248196,31.324270804650162,71.55491638277617,46.53040835814391,0.0,0.03162407564402152,-0.045856760024142774,0.03765685353450369
0.9200000000000007,hard,0.8608217654841589,-0.516655391357713,-0.5617631516225781,1.5247299148302778,9.592092884033436,7.744082933105493,-0.8881788215466335,8.892833767732617,15.015680786670398,-1.4988345505010863,-1.1317687123313023,5.650300235673585,0.6091797560152602,0.1134350577512173,0.09355090247114597,0.2987493835266511,30.348296807143456,71.37356496108146,48.5432201372996,0.0,0.03678197894378636,-0.04688627423450178,0.03961882571362485
0.9400000000000007,hard,0.8659168740318328,-0.7665189841815119,-0.6236114454604984,1.404141652239335,10.582574411887324,7.886039288925626,-0.8895804510110654,9.721720579192231,15.059971383264077,-1.4610691303631256,-2.286182895670389,5.405596435658803,0.6813570037496924,0.12941881131925617,0.1511123569182788,0.2987632628529808,29.714139066956776,70.83334971871828,50.547391626203186,0.0,0.04184277818346947,-0.04784839762600008,0.04095580454376932
0.9600000000000007,hard,0.8715951343792284,-0.999604118460224,-0.6598364491395867,1.2982271013535367,11.548876068124786,7.989299963351571,-0.8659731592732567,10.532848862975671,15.054441299046958,-1.3895787328110183,-3.5095791391153965,5.158372414381296,0.7193242588280673,0.1804627622769977,0.22327352919839466,0.2988404187797073,29.724624895586913,69.88344800045184,52.64264957385764,0.0,0.04681353677347089,-0.04871264564627149,0.04171068633202231
0.9800000000000008,hard,0.8774618266760181,-1.2285166448311076,-0.6688900973572645,1.209771202242565,12.470232641126596,8.078259877060612,-0.8265638539879089,11.331138519320632,14.994690783404756,-1.2982537300127672,-4.794750661003339,4.904772371505972,0.7387295058528756,0.22505303597588916,0.29503078187542026,0.29900903768746884,29.92326396008706,68.5779460742912,54.72861803580557,0.0,0.05176045611476782,-0.04948164091076576,0.041977429697170096
1.0000000000000007,hard,0.8830891800369369,-1.44555289494608,-0.6563712434934588,1.0302584028593191,13.340023047242711,8.19029004592322,-0.8371592228212984,12.099732442054389,14.903196337869305,-1.2297495271457088,-6.105205956677596,4.643468714747855,0.7100575471157641,0.2590127594852902,0.31167621697316794,0.29929427516253715,30.142048717358097,67.18546558411687,56.119629037249894,0.0,0.05641270711315893,-0.050161736048254364,0.04172677898606823
1.0200000000000007,hard,0.8694051360140622,0.056615295245700525,-4.679165477852504,0.44668674062792557,12.309735270702324,0.6942445813551839,-1.2578418080514795,15.773260875670255,1.8086074375324017,-0.15820003598639565,-3.9080135652520873,-4.705099522723266,1.0730909943193168,0.29868995149132804,-5.559344165236167,0.29773503043980926,16.884415747835007,24.576727326847674,21.191465627404536,0.0,0.06112208111756115,-0.05941973933714754,0.03969841243660557
1.0400000000000007,hard,0.6623667667630451,-0.6491522865196802,-4.065707834963364,-0.04296920530709414,11.36925800679361,0.7559962621646239,-1.199150495584235,15.324360611202467,2.2706683465221857,0.38281131076328223,-5.5939027544942626,-3.9491870369007636,0.5813219292549028,0.3526362363473093,-5.1011394096144125,0.2939146678926834,15.93114596511395,26.081445682907187,27.488929003152528,0.0,0.06554708319212824,-0.0741809759533467,0.034572133016541086
1.0600000000000007,hard,0.7074525112378001,-0.8946229247085367,-3.4999127376525205,-0.4993664365821323,11.915727442614347,1.7498455650592923,-1.1786106771593436,15.836696294471253,5.118717882634778,0.820805969717041,-7.866282815503381,-2.964025772330233,-0.31915552848493867,-0.08841281009401511,-2.6195343685751977,0.28817750067972936,19.432702999529837,49.3817715611449,39.36987883226314,0.0,0.06926976429874225,-0.08974542192804057,0.026434868469211906
1.0800000000000007,hard,0.7925867747759369,-1.0985270293298495,-2.9768612666330894,-1.0705513546263579,13.970698227017019,3.738595652566314,-1.274184692757379,17.44599757934238,8.159160265393986,1.1548528339742732,-10.987667074983614,-1.4425384971250157,-0.6287535230087525,0.10041812092130847,0.23653490322545728,0.28150864390116853,28.138037714827796,62.92649634837249,59.14395289125155,0.0,0.07314855488822877,-0.1003269922436532,0.016385856253723758
1.1000000000000008,hard,0.8584683430438749,-1.5364435871231774,-2.6026044987715355,-2.4993737715258217,16.76976860241696,6.415485441737843,-1.4510698440517766,19.29091558661101,8.998963492607917,1.4967942952398348,-12.997698328536643,0.6688610866663094,0.22266329318128697,1.0510495095942651,1.770058057805012,0.2749655173917556,41.106133283410436,58.64342288113497,72.59821755572074,0.0,0.07587833864311484,-0.10402267446518067,0.004449183918081087
1.1200000000000008,hard,0.9561287803567304,-1.9190106739598853,-2.2350620901978226,-3.8636000623681546,18.662485324110268,8.533731132223862,-1.3969862687490866,19.84006776346733,9.662303085831388,2.0767450015430833,-14.401435550130987,1.3124098719262767,0.44702373231593445,1.359181010523344,2.316665029339885,0.2691217065796101,50.66910267652564,58.131385756242025,72.6294580443844,0.0,0.07668869620357247,-0.10492495583397964,-0.008861406519445359
1.1400000000000008,hard,1.0084532323413415,-2.183019696123301,-1.8173659661153763,-4.551323575255898,19.429723330730358,9.410533367118942,-1.305876637966562,19.938057362204162,10.66269401923138,2.6275138500905864,-15.5369586948694,1.663433321652982,0.38754166415983954,1.2331304529475142,2.523798218687984,0.2641934446855642,52.059906337217384,61.44159703891186,71.63106223035771,0.0,0.07568187444660585,-0.10590040699663508,-0.02237293287430847
1.1600000000000008,hard,1.0121591764055569,-2.417041055615046,-1.4120903486350604,-4.7878503444002325,19.471093752429127,9.741466890457778,-1.2934237697303985,19.968915552026196,11.729793588016845,3.037389047711094,-16.03137412810732,2.238019410994478,0.4824406109179438,0.9677041148695062,2.515740693877201,0.26025384792609463,51.117874602778436,65.17298449457131,68.83578116530616,0.0,0.07274527189340892,-0.1071593700311838,-0.035611155564471406
1.1800000000000008,hard,1.0249413704657002,-2.623498488082036,-1.0333089344951576,-4.761472474969137,18.999663615177983,9.81454811908526,-1.3422562005816399,19.86301938882732,12.72010380551015,3.2977792205114245,-15.575604956703447,2.782860908345964,0.6366631332960357,0.6266439378630733,2.2608071083452157,0.25729263723354184,49.18081640949075,68.63578905651711,63.509522879144995,0.0,0.06787397498550646,-0.10876130249764546,-0.048336596838240715
1.2000000000000008,hard,1.0535324115116709,-2.7888689443354195,-0.6778327614599604,-4.510797668311483,18.200440363663574,9.68886307235681,-1.3706573707772103,19.51922325064806,13.726205824976507,3.3833760650017206,-14.639864649451278,3.240604660588521,0.7397833723915387,0.18682710108985529,1.8725546102784725,0.2552060405123305,46.277047873476064,72.71812373169077,56.85415188126904,0.0,0.06162240979202853,-0.11113502059762728,-0.06016712618032133
1.2200000000000009,hard,1.0676120574792938,-2.9087442391628144,-0.042787270555715524,-4.153925292963259,17.3541968467177,9.529286355110697,-1.3621690667540867,19.07692710588308,14.699263218044399,3.328044829437578,-13.77201867872597,3.741357463313995,0.7239070287546467,-0.19622920003839767,1.5818869785054266,0.25384768696136284,43.33672805834612,76.62450740703302,52.029354133690674,0.0,0.054915734349684754,-0.11453483655714433,-0.07061686348507844
1.2400000000000009,hard,1.0588833267461186,-2.9872199569013755,0.29569656661501886,-3.806412616581478,16.615610955629375,9.433138437682159,-1.3327461650571883,18.63658057829633,15.532322014609363,3.229061426969796,-13.041517321386735,4.5465947073679915,0.6981499204911252,-0.47643123286751565,1.3490922290571645,0.25310340663247916,40.88011760674278,79.38164590802062,48.375750880034445,0.0,0.048540190113496605,-0.1187555413291524,-0.07944604520347928
1.260000000000001,hard,1.045061166532267,-3.0451544774434813,0.6068195344769007,-3.500854546231743,15.980998051111522,9.393075673484809,-1.3175370880491066,18.19875297203326,16.207558474401687,3.1238996575481464,-12.427824437187137,5.0921504100128665,0.6506465475054386,-0.6511916461029057,1.1375447061643746,0.25288164922133805,38.89615160521345,80.8819047910784,45.974618379917146,0.0,0.04297605765994921,-0.12352957742820223,-0.08660419118087857
1.280000000000001,hard,1.02752822359551,-3.076769362939535,0.8955877912627184,-3.254667458901916,15.438806351961844,9.42194472350301,-1.327948243726496,17.767694946869867,16.749187547595955,3.0483360771403527,-11.940875771600718,5.659627169041414,0.580063176174568,-0.7191453032859362,0.9490988822033262,0.2531015634259342,37.28626445890219,81.25417974648053,44.61175530177567,0.0,0.03845660549728468,-0.128580423051058,-0.09219778507965078
1.300000000000001,hard,1.0229605275322378,-3.086126329479759,1.1618632760798349,-3.0862836257780497,14.895145658106198,9.670602205418612,-1.3547513206488948,17.34530841851693,17.17773487694595,3.002082009804308,-11.48339663802962,6.201653553523919,0.508921674784296,-0.7276692420943927,0.7797951967701238,0.25368792185622974,35.86601130840796,81.04948913766381,43.58056216064498,0.0,0.0350514618175433,-0.1335834399325077,-0.09652516074390144
1.320000000000001,hard,1.021927110646685,-3.0746346428131144,1.397735418372589,-3.041137621174324,14.518805267239376,9.766752966756103,-1.3907817343061495,16.884418493491033,17.50876052337258,2.978232301722996,-11.049451753986762,6.706789033124034,0.4768175942125353,-0.712741187401771,0.6690172024055893,0.2545766035714887,35.17688798338564,80.9051691133701,42.79887487849001,0.0,0.032679059792058186,-0.13828362066843136,-0.10002754752025345
1.340000000000001,hard,1.021572153592959,-3.0395506145612767,1.6077124761878405,-3.0286250928266316,14.223142064423774,9.908237532643945,-1.3912358317621918,16.40379281526787,17.72325788628877,2.982725955350936,-10.65133967069773,7.183805725211169,0.46395572643156296,-0.6865863426867777,0.5962816512936004,0.25572582907954733,34.96087814600149,80.53091953400954,42.3530657867509,0.0,0.03138687372830549,-0.14253371747186658,-0.10301536814626665
1.360000000000001,hard,1.0213604017311195,-2.9855300783614576,1.793369539997233,-3.031290068430995,13.979667530197228,10.066251537623945,-1.3686218180159129,15.918025030154169,17.812795896876434,3.0047922456234666,-10.297968952752246,7.644078326820549,0.45996217704951464,-0.6403128221196488,0.5358368439340104,0.25710709837652956,35.005012972978015,79.6810670700317,42.30214796043141,0.0,0.031207804397454034,-0.1462305620079309,-0.10564397923997226
1.380000000000001,hard,1.0208004147513987,-2.9142698939621443,1.9560255489287908,-3.0485600947324505,13.752114151531416,10.21713232659417,-1.3434756226037332,15.438264895688954,17.775963753406305,3.035793675096662,-9.988817930677406,8.092884911005257,0.45498248414645803,-0.5700367285856316,0.47542374497328244,0.2586965903473801,35.23385965012618,78.25547469922483,42.63506796530922,0.0,0.03206580473988231,-0.14929760171161677,-0.1080040823135333
1.400000000000001,hard,1.0191476927626444,-2.836328206867406,2.096314345679926,-3.131077317725374,13.515094023635141,10.340052840525635,-1.338284982134561,14.904463458256274,17.72418299739127,3.079624800881538,-9.728233675543237,8.539984790495982,0.4476548248226522,-0.42256733213542774,0.33795750420682974,0.260462666584872,35.459607982752786,75.22423364509429,43.37928142017022,0.0,0.03372309219319607,-0.15170618770021252,-0.11020317182591043
1.420000000000001,hard,1.0167370778414315,-2.7289381939093937,2.215046632982453,-3.281709066570549,13.28724002242906,10.463875897382131,-1.3331005580824589,14.40380128503207,17.520602794932,3.121441032581939,-9.486396803633387,8.964221456420923,0.40769571582537584,-0.30974290012781514,0.3046398013591312,0.2623627221272945,35.94952625192116,73.20844590599647,44.32117755937582,0.0,0.035849475646213984,-0.15340941842633424,-0.11243731010060476
1.440000000000001,hard,1.0142907602143778,-2.6122759541376963,2.3103606262863767,-3.4768536982894966,13.047866861036582,10.585567552430478,-1.3257130580482768,13.939588733057402,17.21419959535605,3.1659690596057684,-9.277262528498571,9.366639318348774,0.3664534579412704,-0.16846280554799178,0.27272578834543865,0.26438112507863604,36.7043280955079,70.80240824966732,45.46139642438118,0.0,0.03820896817833796,-0.15425265176140385,-0.11483804801142311
1.460000000000001,hard,1.0114277614977658,-2.48449135883629,2.3841118961088528,-3.7163678375404166,12.786669393353723,10.684272320893731,-1.3139255149503033,13.50104635465183,16.82520133184837,3.2078937045542992,-9.098742903028288,9.740012254969166,0.325032912927557,-0.00813027168092973,0.23477823878229132,0.2665049385107356,37.56312256924832,68.02604440721545,46.74658870747776,0.0,0.04052721584133948,-0.15413798634091433,-0.11755885275307383
1.480000000000001,hard,1.0079357544266991,-2.345773588467023,2.437886437510123,-4.0042621784762895,12.51786622394685,10.735693733046059,-1.2948202336057528,13.083692184340876,16.35639423968962,3.2436904660341277,-8.955139453153768,10.08232174664004,0.29110692174887093,0.16410765534921723,0.17672940910902582,0.2687181111949928,38.28173372088113,64.92205588884565,48.17708382787865,0.0,0.042501000960501904,-0.15298712542744078,-0.12076299484325678
1.500000000000001,hard,1.0036035148023181,-2.1959783907817787,2.47166655803015,-4.3197700362940665,12.265561863194598,10.745079339023636,-1.2293970311401683,12.686851754130377,15.82270423861993,3.295282947745906,-8.856448639885368,10.397959562070753,0.2674066323534493,0.3567888665230315,0.10695503784662604,0.27099711284037736,38.8234989250138,61.60806277546474,49.82008395741872,0.0,0.0438861396586417,-0.15070841461553866,-0.12461635711911265
1.5200000000000011,hard,0.9983199208424467,-2.0356029994091944,2.488725166629793,-4.672908553989106,12.04931558143295,10.7321215345817,-1.1080383723793283,12.310979818799886,15.238537172553537,3.3530775104298702,-8.819443738733705,10.693902458792097,0.24793083581119799,0.5597123634744126,0.04422415098665405,0.2733149169362709,39.290564484349574,58.13065755057926,51.772350103992906,0.0,0.044505074733953216,-0.1471725854467422,-0.12930756611313157
1.5400000000000011,hard,0.9921784271046518,-1.865127122378941,2.488859891481976,-5.076916290799779,11.874223193452378,10.715216419751771,-0.9415235918241882,11.960656185218548,14.612307988646586,3.4037918945718495,-8.85381974234403,10.96723738526662,0.2360695621037331,0.7835366723041154,-0.005792389901267179,0.27564720002942683,39.79610698233419,54.504691285788205,54.0243673307783,0.0,0.04408170564332697,-0.14220758138408646,-0.13503073734357438
1.5600000000000012,hard,0.9854383086522202,-1.6863373337225909,2.4723916021238512,-5.523318242947287,11.73201506566414,10.705909136669433,-0.7266799767131942,11.63275932032785,13.952343528963446,3.435953903463388,-8.954316234192305,11.195498452868517,0.23837356761620704,1.0241499477423823,-0.05088556950225262,0.2779743341523975,40.415933584517845,50.76535163865564,56.367707815533755,0.0,0.0423059235921714,-0.1356186108046913,-0.14198140339662507
1.5800000000000012,hard,0.9798004711892986,-1.5048279643111733,2.436931883066449,-5.9894532803173295,11.62275822395556,10.639060073322113,-0.46904244761187375,11.296026549959599,13.280088185843931,3.432291441200512,-9.072004447720568,11.32430520654545,0.26854837410960386,1.2622130063736887,-0.08683061448607131,0.28027848515338827,41.50876545144739,47.133785303112084,58.32177742010356,0.0,0.038852819980925705,-0.12725540289822293,-0.15032372902564098
1.6000000000000012,hard,0.9756011001860609,-1.31936298682756,2.385014855097295,-6.432080574721899,11.49726509950327,10.484536064950651,-0.18591323829941042,10.912518820224111,12.616418596978464,3.3951233941161694,-9.096686005848627,11.376433196265962,0.3387024737631619,1.4620650391898995,-0.1677275241619699,0.2825434410635701,42.384688598212065,43.84536817156973,59.800716382628224,0.0,0.033404802739431354,-0.1171273481460489,-0.1600857351055153
1.6200000000000012,hard,0.9724168064827036,-1.133229804941244,2.3184402853757238,-6.775933413245326,11.19689999404614,10.355759137090864,0.08233902174948038,10.462562723832562,11.989346899380028,3.3434374093267523,-8.770838833482575,11.350661271718971,0.49066565812179774,1.5700253523375634,-0.3423769889512552,0.2847332528008271,42.54969536788465,41.185741461340406,60.056868106970796,0.0,0.025710205730023566,-0.10532516215551779,-0.17109110953204312
1.6400000000000012,hard,0.9715889278356546,-0.9495288373433972,2.236988751965762,-6.93915408446448,10.709007508270933,10.066621111117536,0.3003299792277203,9.901937586176274,11.439041845763818,3.2847135005410895,-8.123675551600044,11.140340267972448,0.6895965931884517,1.560045456743277,-0.6403942875201798,0.28677204207201845,41.83269349358666,39.60690815441354,58.348203412636046,0.0,0.015616894874178656,-0.09212508760542927,-0.18286816844034912
1.6600000000000013,hard,0.9707852541533443,-0.7545667587068632,2.1504373458304427,-6.907053667975912,10.076525604664795,9.656257135438846,0.4993895177166262,9.265230175806108,10.985550487889297,3.2486038418581202,-7.383543687063671,10.801844323885199,0.8527793190177386,1.4847364522562763,-0.9510793879763159,0.2885427292264117,40.49839561874674,39.151184710601704,55.79382542390827,0.0,0.0033036711376365786,-0.07782823980044193,-0.19475151505296115
1.6800000000000013,hard,-0.5842535475694374,-2.0220589924293266,4.229996362032006,-6.177379088917518,9.474360179826716,9.04191041103961,1.0767876875506401,8.878792290038028,10.376042035454773,3.6979089506950187,-6.807205490581692,10.573834618271551,-0.7544450704192683,1.043469596130197,0.18458992624126183,0.2899932548537119,29.202248324360166,35.58571232167447,36.230426193210796,55.20641493833054,-0.009891962819459144,-0.06282263232332559,-0.20567545709665952
1.7000000000000013,hard,-0.7421264413837435,-4.201696510681747,9.712702686121698,-4.911326928232244,8.392265294746847,7.46328188270458,1.5950103226134855,8.403354998569295,9.340006231153248,4.228637480624896,-6.658968295889302,10.349932787215415,-4.1843668692654665,-0.09284019092757632,3.1351288768017582,0.2917216385817602,89.40137028121208,24.809893516555803,30.491509870724833,55.62071874227119,-0.020737951004312003,-0.05047601301337146,-0.21390201984695156
1.7200000000000013,hard,-0.9572560759068887,-4.082323053737421,10.071403634790524,-3.7948797419550653,6.367393020220873,5.172120808544047,1.4753117220255065,7.712204112671403,8.152236612055297,4.074426912245797,-6.012405508808815,9.749809713146622,-4.005072406341327,-0.03110457519397276,1.20380044955953,0.2945234879709486,77.93844596563194,14.564722575104511,25.04722464883795,50.97312195384711,-0.0303915677530007,-0.044614514934822956,-0.2207733011958263
1.7400000000000013,hard,-1.5930780936772382,-2.4002655273042794,7.806842732352365,-3.0071699351454093,4.753319573172055,3.7938882004428507,1.140934950133049,7.149830836869774,7.432725651829484,3.687467101456187,-4.68910658806025,9.309365522763704,-2.3998885339491656,0.29556047206608493,-1.2281862090604267,0.29771241090216694,52.661478557693755,9.74199775026128,22.59079178202334,46.05314875716484,-0.04087804499152614,-0.042306024376750004,-0.22748307835937703
1.7600000000000013,hard,-2.2014548558865834,-0.9448122635237323,7.625914916711023,-1.9837907196055884,2.4077477576785196,1.3354547185502676,1.1480904971194466,6.831940012083903,7.123109566137286,3.58080960205143,-2.916206497175573,9.279979285042693,-1.9591655671847708,0.03742675308429742,-2.260917481238564,0.3002836053429453,49.46555223382454,22.447385860707342,43.373150895568614,0.0,-0.051739304381890665,-0.040093173655041385,-0.23457426041086107
1.7800000000000014,hard,-2.539565704851278,0.015103405841267181,7.988007886512673,-1.8849826110288124,1.9550818316584913,0.9819219806228667,1.3667327527635944,6.481493792178737,7.030653405382394,3.582250030985558,-1.7923947673181315,9.754114595469506,-1.6475999679560123,0.0731729674391612,-1.7672769997640152,0.3019832731202181,51.019769447722354,24.2557919684441,47.127850978023076,0.0,-0.06234833690875736,-0.03829605122387661,-0.24188527414300895
1.8000000000000014,hard,-2.718781534077393,0.975094520100821,8.27578923731142,-1.8352129505423584,1.6342615631500124,0.7005628414460188,1.6137811516805574,6.002445606892494,7.198705305349493,3.5786583149935565,-0.8775945610363496,10.356839685119795,-1.3479080892525057,0.04033711957084818,-0.9464766977669551,0.30302423889108815,50.60854071505146,32.13305503881451,52.07211870161389,0.0,-0.07269388929928068,-0.037753822122568684,-0.24884591865218286
1.8200000000000014,hard,-2.72835009542971,2.225158536513717,8.36213090624605,-1.775827196214259,1.330210338005744,0.4633102109877816,1.7328871304860631,5.2949097473824285,7.596181655384798,3.5692987733008334,0.18774452900936867,10.751934239734549,-0.9516438479844957,-0.0554550128611473,-0.46617135880979016,0.3037029262270084,48.39626822042095,39.14761550154452,54.170645919140185,0.0,-0.0826136720257409,-0.03786450075159235,-0.25502307618871867
1.8400000000000014,hard,-2.645158065939877,3.5103632205202713,8.352694590249945,-1.7271975282277587,1.0105576718688247,0.2522415750810645,1.7806973437231686,4.572677351190401,7.707812712519215,3.54976456399061,1.2380491996119312,10.957492622993797,-0.5187421699050629,-0.11894900202225515,-0.3686458297814995,0.30419157699593385,45.43746495144569,43.05046387350879,54.60630830887307,0.0,-0.0919793633819512,-0.038230739416024735,-0.2601628395166943
1.8600000000000014,hard,-2.569954670230497,4.7069518528683085,8.325343626867042,-1.6866013360493028,0.7079935101994667,0.0772645285995257,1.7676516147088481,3.739315406895233,7.637408837107494,3.494994503878181,2.186109523494683,11.110350517415313,-0.1946579565542438,-0.13222298804448432,-0.336863306466555,0.3045319915270881,42.76042586856826,45.839364509182474,55.06246391371937,0.0,-0.10094041595613623,-0.038931449790619695,-0.2642899915081127
1.8800000000000014,hard,-2.4873025875179384,5.847575796548144,8.33742241914514,-1.6482232791683573,0.34310388209785847,-0.06939851474389633,1.7449894400882073,2.790883965413113,7.5399830186876,3.442357339500761,3.0862940205735185,11.253675095136504,0.05417497530073421,-0.14473822279232834,-0.2571914842210954,0.3047413818281373,40.70596314869578,48.76740450288757,55.57681253043184,0.0,-0.10965549569867873,-0.03993334815424093,-0.2675186004152311
1.9000000000000015,hard,-2.3848289424691504,6.960853217929193,8.402384398570694,-1.6034743135989142,-0.1401862580888485,-0.32737100666691843,1.7208924701845325,1.7619195454903602,7.4446987568827225,3.3963009274248153,3.985772051949407,11.347334018547166,0.21565682983859802,-0.16090729198309586,-0.14698048044676254,0.3048535669032703,39.21895005426998,51.749242370331345,55.51591371463003,0.0,-0.11814341807515964,-0.0410880561508309,-0.26993951961641643
1.9200000000000015,hard,-2.24993970475273,8.04765016090484,8.50069951168134,-1.5684135148540936,-0.42024595156891786,-0.5499250835549214,1.6935672897815757,0.6627033457432018,7.341752091477614,3.3578052802729195,4.878493815312593,11.378935464204943,0.35331741078745765,-0.20726278648607088,-0.07133965672929268,0.30490863780604655,38.06441631607837,54.670598180573215,54.890962446172274,0.0,-0.12640157090555765,-0.04226747492190877,-0.2716139024276844
1.9400000000000015,hard,-2.0766977332999517,9.105224743123475,8.623752441760217,-1.5403669657191834,-0.6858392111036178,-0.6142165773402016,1.6543074898279595,-0.5018297725167595,7.229845968284506,3.322728778381974,5.748261633885135,11.363485243464279,0.4568796336179787,-0.2604106739033462,-0.005090980431216548,0.30493699811505426,37.17035702614751,57.52567072870943,53.915701658083655,0.0,-0.1343776308784548,-0.04341462191793209,-0.27255546884543963
1.9600000000000015,hard,-1.9319606941150613,10.12945483664328,8.773062019979916,-1.5318767151336012,-0.9309366184950991,-0.6505656119232791,1.556928269991954,-1.7328608801482108,7.125125334805345,3.241973178642656,6.60642992796476,11.301165526466779,0.5254700280838199,-0.340465250265532,0.050260831179588204,0.3049643836980795,36.663698995669876,60.44014831292694,52.46431438335122,0.0,-0.1421144742977207,-0.04446126412289891,-0.2727932829739226
1.9800000000000015,hard,-1.757778277382889,11.134441334961583,8.880240840297873,-1.4928960890527012,-1.1736565760608402,-0.6599193408192588,1.4745764272662467,-3.021451610704671,7.014386340723739,3.1869026945235266,7.448187137106685,11.20688602166763,0.5606206965509918,-0.39814901773592687,0.1398151292344834,0.3050165067050971,36.62348495681157,63.24551688275043,50.87192120660038,0.0,-0.14963384814649705,-0.045358326785051466,-0.2724264569992086
2.0000000000000013,hard,-1.4759495676676309,12.12082913697621,8.95869986880297,-1.4689029061279693,-1.4017296374852783,-0.6481393508542123,1.4444590099602357,-4.341970545085127,6.883576054398584,3.2040091311871057,8.254576148310766,11.09314569633543,0.5820422379447999,-0.4533932286956881,0.2004384117244749,0.30512524198369007,36.583216576186906,65.73242771703853,49.29685467441357,0.0,-0.15651868784201559,-0.046160918750627604,-0.2714386987532113
2.021999999999999,hard,-0.9654061630139935,12.070376355460635,1.1074635184434527,-1.1454082389512819,0.13375120366385973,-4.57511457634595,0.5286364126468264,-3.088671861221618,-3.777300651444584,2.7971826819704,11.283660966245183,-0.9948235717816285,0.3990217243948225,-0.4446523133996931,-6.082236996946193,0.30288747013709916,17.73630843140496,22.263949921656035,15.176903320818253,0.0,-0.16666420346394284,-0.0559624635812174,-0.268325448034473
2.0419999999999967,hard,-0.44096606142747863,11.9214335975051,1.5759959053442412,-0.8658531183485716,-0.5774594653861727,-3.9611658248020323,0.027988490082782702,-5.536850945102206,-2.7922869352716564,2.6608618236718167,11.258788046945021,-0.3055573386165733,-0.18454023656173202,-0.43403457799753925,-5.092044626106286,0.2982803513444549,18.91024480469166,34.21855270011127,16.702195403813032,0.0,-0.17733349743541643,-0.06867443120060407,-0.2626899864852776
2.0619999999999945,hard,0.49225581623740844,13.50040173820367,3.1736968647129284,-0.8216498942087509,-0.887637354099791,-3.4041271856087043,-0.25320146137348254,-8.963277007540812,-0.3262665775242475,2.8137406499796787,12.37532327945881,1.3232104128075903,-0.6903216692558258,-0.741251354073446,-2.033827561659673,0.29177824617853476,26.267188377470895,64.60379427797801,25.282426793978544,0.0,-0.18657499594478905,-0.08009736541843422,-0.2538098027172429
2.0819999999999923,hard,1.7962357335784467,16.56640757466405,5.889310965662489,-1.1061433068790403,-1.1766538051446407,-2.965071498729264,-0.5783339657920288,-10.637172564204878,2.8289340460352506,3.0336363830914435,13.855196264034408,3.710411852281915,-0.2699941130562432,-1.0645852846009012,1.003568537976973,0.2845886595782388,40.353195985442426,83.81630156096391,36.629320171950795,0.0,-0.19318407011533922,-0.08574503438505868,-0.2418738212380439
2.10199999999999,hard,2.930319963752728,18.816763799232913,8.564415656111825,-1.4162289873994396,-1.5701523911020026,-2.6028049802992657,-1.0669404466552668,-11.73766979987706,3.6244347901705254,3.052053493770438,14.750314510685126,5.335962913332635,-0.08318545581338128,-1.1664254318924785,2.132819998689516,0.27779978829435975,55.523727088376916,82.30186510083996,40.701399371612986,0.0,-0.197786666603324,-0.08713239507227823,-0.22888103149352731
2.121999999999988,hard,3.5966233082494004,19.93905835918823,9.673395667424222,-1.5034248507017398,-1.8983528682163069,-2.18592015028291,-1.483981220038015,-13.281872729824563,3.9889391635867835,2.996696692902044,15.170959545906614,6.358114423093319,-0.11192880830558326,-1.139814210128027,2.3408416858136323,0.2718421127857164,57.78112276512253,82.00248036664134,42.25317174117256,0.0,-0.20062056611747942,-0.08825348926909211,-0.2163213649453949
2.1419999999999857,hard,4.08111810388762,20.75919032655387,10.069613836298982,-1.483384707295677,-2.175962699250495,-1.7558327334429764,-1.939462364698138,-14.61211003821113,4.5278628005130575,2.9021726317686936,15.526044326988771,7.309723902652074,-0.042736815291335675,-1.0544805858912893,2.3551413995523354,0.2668054851393664,56.128028193113636,82.27685491743358,43.95603099422464,0.0,-0.20165667606372698,-0.0896784074614124,-0.20413916476762664
2.1619999999999835,hard,4.491833339138077,21.11824281240102,10.480641609984994,-1.4821092855127829,-2.4226728606568777,-1.3569455816455398,-2.395360840771044,-15.574838074897828,4.991667024014518,2.8346903814690148,15.759242081204423,8.282762386102606,0.035179469626715684,-0.9133855754039334,2.3395525604836673,0.26269673489146594,56.14100597482257,79.92403684898547,46.26555810884879,0.0,-0.20073594101439454,-0.0911120107235786,-0.19196613673705132
2.1819999999999813,hard,4.815591691427409,21.12188983798334,10.801429268357298,-1.4851594063274793,-2.618820543233026,-0.9772811713492182,-2.7901502647425707,-15.939193134698975,5.464405266303857,2.7949882768479513,15.873487877696705,9.216587519117086,0.09981766395664145,-0.7750076691029094,2.3173731030496203,0.25951285308077154,56.13721936540543,77.11896567459881,48.763149754172154,0.0,-0.19780744208769427,-0.09277485171987424,-0.17972202065690898
2.201999999999979,hard,4.968502775162547,20.780199111134582,10.940176571226978,-1.493765333725906,-2.7837490382907024,-0.6196323813707656,-3.091075879829128,-15.634914620107875,5.927654204558722,2.7643095080321363,15.80925935941336,10.140684881932152,0.292585322985221,-0.5629318394350344,2.1113853340397917,0.25723418856855285,55.05236663546376,72.44695635213357,51.765031176935615,0.0,-0.1930421774879901,-0.0949341334255839,-0.1675014310227453
2.221999999999977,hard,4.900947249827096,20.141921198383233,10.904938911204201,-1.4941832222231481,-2.9106792367765593,0.002164462178066734,-3.2558248815687296,-14.960291388586581,6.334261687213322,2.7318712066542137,15.569220443481612,11.062287853781015,0.48612049332717167,-0.2589119884968972,1.7901733586774298,0.25577560483197037,52.84232284114462,66.70387332658355,55.302609645446275,0.0,-0.18697242523107818,-0.0979997392756595,-0.15571220562585358
2.2419999999999747,hard,4.654861236585805,19.34617453868362,10.773065341558556,-1.494186527428355,-2.996373462521076,0.32808103383533105,-3.280488618859943,-14.105232695200893,6.9093928549447226,2.6724246832944862,15.199069385317923,11.957771884863533,0.6374862318847223,0.08230387626547594,1.4460316375728726,0.2550085335899259,50.01381353715274,60.9677419965011,58.99363777599734,0.0,-0.18043003182871337,-0.10219819628486203,-0.1448208272060693
2.2619999999999725,hard,4.363968397733415,18.570316231684057,10.648746811860056,-1.489595494234883,-3.0483813977169207,0.636123925470955,-3.238367664298327,-13.40535552951365,7.318794601190331,2.6164379486750686,14.81812117127286,12.74021654592768,0.6675843549466163,0.3472532176252453,1.2081457843630814,0.2548033600606492,47.35483570813339,57.526926006777096,61.899016253507256,0.0,-0.17411953949472597,-0.1074191466683225,-0.13515749341556016
2.2819999999999703,hard,4.1446818445249916,17.911649664244976,10.625901780471185,-1.481283052727806,-3.0735152449957344,0.9234968996502997,-3.1958988711973815,-12.911019998615114,7.826287929668958,2.5682486900910457,14.50659513602757,13.338702542355708,0.6431793597791866,0.4801955567513463,1.032098259730258,0.2550694015863139,45.193893178298566,55.79766002024872,63.35236734693328,0.0,-0.1683947180127138,-0.11319056405807845,-0.12671187516396007
2.301999999999968,hard,4.003423370507455,17.265492648644177,10.814524570871667,-1.4594879186143108,-3.0792720520146357,1.1855542970994075,-3.1745832192769323,-12.449806413862083,8.319769736264718,2.5178062495878786,14.241639387643245,13.77260064625908,0.6126808796404966,0.5321050858165808,0.8400557692995797,0.25573345094588074,43.365432423004236,54.39688689246317,63.67729258797223,0.0,-0.1633553722873937,-0.11900114389261907,-0.11922119976752385
2.321999999999966,hard,3.9308699774353673,16.764146887740196,10.8371442132763,-1.436010466182359,-3.0664554209042123,1.4191520976498562,-3.167007704878456,-12.01385386948087,8.78836118789015,2.4668284761430197,13.946024175422943,14.106907965453122,0.5832240613231474,0.5429302419997358,0.6819210063687311,0.2567216625039388,42.17281141355199,53.33295547380328,63.627988304189266,0.0,-0.15900440497605176,-0.12458122265737068,-0.1123915803667243
2.3419999999999637,hard,3.922905932986198,16.345946800884153,10.893476877109954,-1.417630722164801,-3.0308158247168953,1.6275200115397945,-3.175432633787773,-11.605752943325832,9.238969308916953,2.4027671522696443,13.619986835348982,14.357909229972643,0.5440544125030251,0.528736382117655,0.5636814722407346,0.25797373300680065,41.38472910694352,52.6540840466586,63.37678590947632,0.0,-0.15536413745153968,-0.12980958407789275,-0.10601273874291804
2.3619999999999615,hard,3.962304921219021,15.987371795977769,10.961015490209817,-1.3991953670373818,-2.9753945797481265,1.8118162352618956,-3.1957423030447947,-11.227643196706602,9.673829228390739,2.3264627380300884,13.27891108017348,14.518239976071326,0.5017378249492412,0.4934541683232812,0.47186656456216897,0.259443789462563,40.84219475807185,52.34009602720275,62.88165315341278,0.0,-0.15242649935509134,-0.13457946571849763,-0.09992468702043827
2.3819999999999593,hard,4.042797842165063,15.665475889696856,11.023911781187687,-1.3794217799815913,-2.9027254390634347,1.972556333937792,-3.2249125341653495,-10.877749903840298,10.090586933832796,2.2400782095101652,12.933948096180071,14.580849660597929,0.4590609444876019,0.4384531853132391,0.39372888127212824,0.2610959487266951,40.46869292424907,52.33681692858611,62.083374476569695,0.0,-0.15012196002309344,-0.13878532017770664,-0.09397913109930144
2.401999999999957,hard,4.166096906676698,15.36928243903985,11.075494737721353,-1.3573473545863624,-2.81577708689346,2.1101538742784784,-3.261125989244996,-10.558932073197749,10.490009944931806,2.1462572793411767,12.584362809463958,14.55633610512446,0.41686410740617125,0.33998260557129456,0.29006061656514853,0.2628992609308796,40.23480933071868,52.64146211135829,60.51808529612778,0.0,-0.14832956363757765,-0.14233075650867258,-0.08803000326680659
2.421999999999955,hard,4.346955797298304,15.087399694077073,11.110361929132702,-1.3313696261941008,-2.7138847544125397,2.2262202546462575,-3.3117038106032446,-10.284008338339302,10.888669390158071,2.052283124019572,12.168021233235454,14.551663545525146,0.3388274511476539,0.22279582654559166,0.2116462677207312,0.2648116534033236,40.14389378707532,53.35073705166265,58.58625474109468,0.0,-0.1468279061176357,-0.1451930844858168,-0.08189645269620843
2.4419999999999527,hard,4.562257129451954,14.845218758659609,11.146509586587488,-1.3098543453916298,-2.594023805090817,2.3200931783408887,-3.3638957597291608,-10.03851772218051,11.267386942833014,1.9284057690580467,11.82678323909827,14.367564001525292,0.2770734954027162,0.11350888256745402,0.1777494891729508,0.2668042034229649,40.2308554409672,54.30099429035033,56.97956482566994,0.0,-0.1454262683440607,-0.14724517078054458,-0.07544609196896254
2.4619999999999505,hard,4.8176263906568595,14.626300121701785,11.175042957180032,-1.2889300706331352,-2.4635921211962133,2.3920353922079842,-3.419891159394493,-9.832468757157631,11.626394499204732,1.7928161723218012,11.507316605375657,14.117633669443466,0.2140915965039275,-0.014638947586599465,0.1539303138814627,0.2688650379581313,40.45245546561915,55.48681904851889,55.14659708530901,0.0,-0.1439232326424413,-0.1483516832158085,-0.06856338977357647
2.4819999999999482,hard,5.111709177418,14.419700648291927,11.190438734073272,-1.266500387450706,-2.3230931459148874,2.443389530837573,-3.4763357359716647,-9.66833162545259,11.959942472005519,1.6388387874688504,11.208462971527211,13.796032142793743,0.14946412183786223,-0.16543692478901167,0.12983641516267186,0.2709846487703147,40.77549139271679,56.88067398883998,52.98592798528847,0.0,-0.14208971490877104,-0.14840832487448755,-0.061115028946954066
2.501999999999946,hard,5.442664182600911,14.216535099084277,11.189978137087529,-1.2419727976770731,-2.1723197732885797,2.4754436084593356,-3.5291249718015467,-9.55082045537581,12.26373045515314,1.4623918966403373,10.92508624636503,13.40880421136505,0.0800164839697787,-0.33775080077358494,0.10645357797165493,0.27315370658762766,41.182452474980664,58.46567245954613,50.556110588124504,0.0,-0.13966057600590825,-0.14732629219168178,-0.052946850396530236
2.521999999999944,hard,5.80266167206934,14.011104496157296,11.17412159030451,-1.2164087870490023,-2.0115963615328756,2.4891009190957094,-3.572436706205856,-9.475773441624723,12.518252745384592,1.2599197277250647,10.653708884382572,12.971875951386519,0.013310261705949643,-0.5242306000153322,0.07780908354162641,0.27536282199531853,41.65702578136759,60.074235798382205,47.954327426220516,0.0,-0.13634751325057326,-0.1450121234367328,-0.043892080488728454
2.5419999999999416,hard,6.176821272112013,13.795108146570069,11.14129423087434,-1.1908665281464452,-1.8417467955234033,2.485239014754245,-3.59776282920693,-9.433245396327944,12.706349778306478,1.030133760655231,10.388516012812932,12.501026589424422,-0.04478929070780683,-0.7180502026740991,0.04016653191398775,0.2776002608556738,42.16313308780457,61.6168390953559,45.276828437598176,0.0,-0.13186160779428147,-0.1413751601769111,-0.0337962459616323
2.5619999999999394,hard,6.548246618461802,13.561309894830138,11.090238169422266,-1.1661647509079813,-1.663538709614134,2.4648574761721376,-3.5950600138828155,-9.396658316501831,12.834341965612817,0.7763743860165246,10.126302544990262,12.008523088145544,-0.08337993491513906,-0.9158554706569463,-0.006312863621661597,0.2798508535877559,42.657300327077756,63.083843663080955,42.59529213644561,0.0,-0.12591967233403667,-0.13632779207951007,-0.022536677281280306
2.5819999999999372,hard,6.887492680340256,13.284865605918736,11.003432706099211,-1.1492474704154465,-1.4816078150427896,2.4270856923121755,-3.555659769258436,-9.223449891216305,12.930538787058588,0.5138876599162365,9.848596003472963,11.51003991697307,-0.05815310461916592,-1.1015408836713263,-0.07475555276785754,0.2820952650312147,42.98509033013457,64.35665631064244,40.0728116835904,0.0,-0.11825182475309871,-0.12982000554542833,-0.010065709035816254
2.601999999999935,hard,7.13882238452748,12.910234135634909,10.807171575887496,-1.152863654972077,-1.3044114995668163,2.3695686054101914,-3.4828789349419558,-8.701720546414759,12.971843658012137,0.2785511819565296,9.500024326487594,11.034640630544533,0.08244290908117091,-1.230030074722155,-0.2085401847271257,0.2843031660123208,42.8672865239476,64.67283880304524,38.12324217064485,0.0,-0.10863891335424103,-0.12196941151992363,0.003462188348882428
2.621999999999933,hard,7.239164325529903,12.398298045970824,10.46064665243941,-1.1794845503421951,-1.1266307280149523,2.2963202751805074,-3.4075733667743813,-7.948897625138217,12.846540166138986,0.07545840113520286,9.044216741601456,10.615040328443953,0.27242603499987,-1.2765465635688835,-0.4313091852573804,0.2864168722298349,42.084951402855324,63.51558909573103,37.11860842498046,0.0,-0.09704355032896483,-0.11311606791794264,0.017598408975283145
2.6419999999999306,hard,7.193418316642724,11.79821713314944,10.041620812562908,-1.1977373018507504,-0.9362719336456191,2.2166430753559085,-3.3660207465361913,-7.154635389718893,12.641681601861054,-0.12285207652921315,8.525819873568823,10.264347557861115,0.4364364204466708,-1.274378180025643,-0.6397246717168824,0.28835058040498734,40.89279937533582,62.00997894582099,36.97529466822615,0.0,-0.08373085383120532,-0.10353354873475687,0.031755320991571766
